SALE TYPE,SOLD DATE,PROPERTY TYPE,ADDRESS,CITY,STATE OR PROVINCE,ZIP OR POSTAL CODE,PRICE,BEDS,BATHS,LOCATION,SQUARE FEET,LOT SIZE,YEAR BUILT,DAYS ON MARKET,$/SQUARE FEET,HOA/MONTH,STATUS,NEXT OPEN HOUSE START TIME,NEXT OPEN HOUSE END TIME,URL (SEE https://www.redfin.com/buy-a-home/comparative-market-analysis FOR INFO ON PRICING),SOURCE,MLS#,FAVORITE,INTERESTED,LATITUDE,LONGITUDE
MLS Listing,,Condo/Co-op,5555 S Everett Ave Unit C8,Chicago,IL,60637,289900,3,2.0,Jackson Tower,2200,,1920,3,132,1839,Active,,,https://www.redfin.com/IL/Chicago/5555-S-Everett-Ave-60637/unit-C8/home/13946481,MRED as Distributed by MLS Grid,11925816,N,Y,41.7938179,-87.581958
MLS Listing,,Condo/Co-op,222 S Racine Ave #507,Chicago,IL,60607,448000,2,2.0,CHI - Near West Side,1425,,1997,4,314,519,Active,,,https://www.redfin.com/IL/Chicago/222-S-Racine-Ave-60607/unit-507/home/12712797,MRED as Distributed by MLS Grid,11928040,N,Y,41.8783928,-87.6572885
MLS Listing,,Single Family Residential,2106 N Whipple St,Chicago,IL,60647,650000,4,3.0,CHI - Logan Square,1200,3484,1887,4,542,,Active,,,https://www.redfin.com/IL/Chicago/2106-N-Whipple-St-60647/home/188371660,MRED as Distributed by MLS Grid,11923295,N,Y,41.9195511,-87.7041466
MLS Listing,,Condo/Co-op,5306 N Cumberland Ave #314,Chicago,IL,60656,199900,2,2.0,CHI - O'Hare,1100,,1976,4,182,416,Active,,,https://www.redfin.com/IL/Chicago/5306-N-Cumberland-Ave-60656/unit-314/home/40368815,MRED as Distributed by MLS Grid,11921820,N,Y,41.976334,-87.8377992
MLS Listing,,Condo/Co-op,6906 N Lakewood Ave Unit 3W,Chicago,IL,60626,280000,2,2.0,CHI - Rogers Park,1100,,1915,4,255,337,Active,,,https://www.redfin.com/IL/Chicago/6906-N-Lakewood-Ave-60626/unit-3W/home/12597534,MRED as Distributed by MLS Grid,11925592,N,Y,42.0070479,-87.6639822
MLS Listing,,Condo/Co-op,2321 W Harrison St #1,Chicago,IL,60612,195000,1,1.0,CHI - Near West Side,700,,1878,4,279,200,Active,,,https://www.redfin.com/IL/Chicago/2321-W-Harrison-St-60612/unit-1/home/12711935,MRED as Distributed by MLS Grid,11923807,N,Y,41.8737277,-87.6847155
MLS Listing,,Condo/Co-op,4535 N Long Ave Unit 3A,Chicago,IL,60630,285000,3,2.0,CHI - Portage Park,1297,,1972,4,220,342,Active,,,https://www.redfin.com/IL/Chicago/4535-N-Long-Ave-60630/unit-3A/home/13479821,MRED as Distributed by MLS Grid,11830343,N,Y,41.9636048,-87.7622515
MLS Listing,,Condo/Co-op,818 W Aldine Ave #2,Chicago,IL,60657,585000,2,2.0,CHI - Lake View,1648,,2004,4,355,153,Active,,,https://www.redfin.com/IL/Chicago/818-W-Aldine-Ave-60657/unit-2/home/12659463,MRED as Distributed by MLS Grid,11925675,N,Y,41.9420461,-87.6501518
MLS Listing,,Condo/Co-op,757 N Orleans St #1408,Chicago,IL,60654,359900,1,1.5,CHI - Near North Side,1070,,2008,5,336,632,Active,,,https://www.redfin.com/IL/Chicago/757-N-Orleans-St-60654/unit-1408/home/52637273,MRED as Distributed by MLS Grid,11927138,N,Y,41.8963014,-87.6365635
MLS Listing,,Condo/Co-op,5922 N Magnolia Ave Unit 1S,Chicago,IL,60660,340000,2,2.0,CHI - Edgewater,1500,,1910,5,227,364,Active,,,https://www.redfin.com/IL/Chicago/5922-N-Magnolia-Ave-60660/unit-1S/home/22833122,MRED as Distributed by MLS Grid,11922781,N,Y,41.9897978,-87.6618981
MLS Listing,,Condo/Co-op,6335 N Bell Ave #1,Chicago,IL,60659,379900,3,2.0,CHI - West Ridge,2300,,1917,5,165,432,Active,,,https://www.redfin.com/IL/Chicago/6335-N-Bell-Ave-60659/unit-1/home/12776002,MRED as Distributed by MLS Grid,11914927,N,Y,41.9971357,-87.6859752
MLS Listing,,Multi-Family (2-4 Unit),3904 W Montrose Ave,Chicago,IL,60618,320000,7,3.0,CHI - Albany Park,,3484,1895,5,,,Active,,,https://www.redfin.com/IL/Chicago/3904-W-Montrose-Ave-60618/home/13486509,MRED as Distributed by MLS Grid,11926893,N,Y,41.9611735,-87.7256942
MLS Listing,,Single Family Residential,1727 W Julian St,Chicago,IL,60622,1275000,4,4.5,CHI - West Town,4046,2395,1999,5,315,,Active,,,https://www.redfin.com/IL/Chicago/1727-W-Julian-St-60622/home/14107765,MRED as Distributed by MLS Grid,11926002,N,Y,41.9081095,-87.6712317
MLS Listing,,Condo/Co-op,1450 N Fairfield Ave Unit 3R,Chicago,IL,60622,219900,2,1.0,CHI - West Town,950,,2003,5,231,137,Active,,,https://www.redfin.com/IL/Chicago/1450-N-Fairfield-Ave-60622/unit-3R/home/18917855,MRED as Distributed by MLS Grid,11926573,N,Y,41.9080844,-87.6960676
MLS Listing,,Single Family Residential,3435 N Tripp Ave,Chicago,IL,60641,549000,5,3.5,CHI - Irving Park,2305,3750,1915,6,238,,Active,,,https://www.redfin.com/IL/Chicago/3435-N-Tripp-Ave-60641/home/13456354,MRED as Distributed by MLS Grid,11926167,N,Y,41.9436986,-87.7331907
MLS Listing,,Single Family Residential,6733 S Tripp Ave,Chicago,IL,60629,399000,6,3.0,CHI - West Lawn,2709,3746,1955,6,147,,Active,,,https://www.redfin.com/IL/Chicago/6733-S-Tripp-Ave-60629/home/13992930,MRED as Distributed by MLS Grid,11923816,N,Y,41.770308,-87.7282472
MLS Listing,,Multi-Family (5+ Unit),1500 S Lawndale Ave,Chicago,IL,60623,675000,19,10.0,CHI - North Lawndale,10,3406,1911,6,67500,,Active,,,https://www.redfin.com/IL/Chicago/1500-S-Lawndale-Ave-60623/home/178521805,MRED as Distributed by MLS Grid,11909733,N,Y,41.8606667,-87.718066
MLS Listing,,Condo/Co-op,2524 N Willetts Ct Unit 1LN,Chicago,IL,60647,244900,1,1.0,CHI - Logan Square,750,,2007,7,327,234,Active,,,https://www.redfin.com/IL/Chicago/2524-N-Willetts-Ct-60647/unit-1LN/home/183730643,MRED as Distributed by MLS Grid,11925146,N,Y,41.9274554,-87.7033377
MLS Listing,,Single Family Residential,757 S Kedvale Ave,Chicago,IL,60624,275000,5,2.0,CHI - West Garfield Park,2000,3092,1900,10,138,,Active,,,https://www.redfin.com/IL/Chicago/757-S-Kedvale-Ave-60624/home/13254592,MRED as Distributed by MLS Grid,11920817,N,Y,41.870921,-87.7287474
MLS Listing,,Condo/Co-op,8758 W Berwyn Ave Unit 2N,Chicago,IL,60656,275000,3,2.0,CHI - O'Hare,1300,,1977,10,212,540,Active,,,https://www.redfin.com/IL/Chicago/8758-W-Berwyn-Ave-60656/unit-2N/home/13559728,MRED as Distributed by MLS Grid,11922600,N,Y,41.9753176,-87.8461862
MLS Listing,,Multi-Family (5+ Unit),1707 W 21st St,Chicago,IL,60608,900000,14,7.0,CHI - Lower West Side,3726,6250,1900,11,242,,Active,,,https://www.redfin.com/IL/Chicago/1707-W-21st-St-60608/home/183668332,MRED as Distributed by MLS Grid,11916529,N,Y,41.8538696,-87.6688891
MLS Listing,,Condo/Co-op,111 W Maple St #1802,Chicago,IL,60610,450000,2,2.0,CHI - Near North Side,1250,,1989,11,360,933,Active,,,https://www.redfin.com/IL/Chicago/111-W-Maple-St-60610/unit-1802/home/12792483,MRED as Distributed by MLS Grid,11922954,N,Y,41.9016475,-87.6318546
MLS Listing,,Condo/Co-op,728 W Jackson Blvd #1104,Chicago,IL,60661,399900,2,2.0,CHI - Near West Side,1438,,1915,11,278,690,Active,,,https://www.redfin.com/IL/Chicago/728-W-Jackson-Blvd-60661/unit-1104/home/12815158,MRED as Distributed by MLS Grid,11918002,N,Y,41.8784074,-87.6449683
MLS Listing,,Single Family Residential,2535 S Mary St,Chicago,IL,60608,649900,5,3.5,CHI - Bridgeport,2494,3740,2006,11,261,,Active,,,https://www.redfin.com/IL/Chicago/2535-S-Mary-St-60608/home/18934506,MRED as Distributed by MLS Grid,11916095,N,Y,41.8458153,-87.6527128
MLS Listing,,Single Family Residential,2309 N Geneva Ter,Chicago,IL,60614,3095000,7,6.5,CHI - Lincoln Park,8000,2574,1893,11,387,,Active,,,https://www.redfin.com/IL/Chicago/2309-N-Geneva-Ter-60614/home/13350932,MRED as Distributed by MLS Grid,11922530,N,Y,41.9241175,-87.6436681
MLS Listing,,Condo/Co-op,450 W Armitage Ave #1,Chicago,IL,60614,465000,2,2.0,CHI - Lincoln Park,,,1888,11,,300,Active,,,https://www.redfin.com/IL/Chicago/450-W-Armitage-Ave-60614/unit-1/home/12651635,MRED as Distributed by MLS Grid,11921877,N,Y,41.9184138,-87.640858
MLS Listing,,Condo/Co-op,1729 N Artesian Ave #2,Chicago,IL,60647,499900,2,2.0,CHI - West Town,1200,,2021,11,417,170,Active,,,https://www.redfin.com/IL/Chicago/1729-N-Artesian-Ave-60647/unit-2/home/177013922,MRED as Distributed by MLS Grid,11922258,N,Y,41.913025,-87.688165
MLS Listing,,Single Family Residential,2207 N Mulligan Ave,Chicago,IL,60639,285000,2,1.0,CHI - Belmont Cragin,1056,,1944,11,270,,Active,,,https://www.redfin.com/IL/Chicago/2207-N-Mulligan-Ave-60639/home/13428777,MRED as Distributed by MLS Grid,11917715,N,Y,41.9206107,-87.783937
MLS Listing,,Condo/Co-op,5321 N Lincoln Ave Unit 4A,Chicago,IL,60625,400000,2,2.0,CHI - Lincoln Square,1500,,2005,11,267,383,Active,,,https://www.redfin.com/IL/Chicago/5321-N-Lincoln-Ave-60625/unit-4A/home/12594039,MRED as Distributed by MLS Grid,11921513,N,Y,41.9783722,-87.6922792
MLS Listing,,Condo/Co-op,4218 S King Dr Unit 1N,Chicago,IL,60653,250000,3,2.0,CHI - Grand Boulevard,1465,,2004,11,171,250,Active,,,https://www.redfin.com/IL/Chicago/4218-S-King-Dr-60653/unit-1N/home/18941022,MRED as Distributed by MLS Grid,11922283,N,Y,41.8178568,-87.6174066
MLS Listing,,Condo/Co-op,4857 N Bernard St #1,Chicago,IL,60625,249900,2,1.0,CHI - Albany Park,1100,,1919,12,227,285,Active,,,https://www.redfin.com/IL/Chicago/4857-N-Bernard-St-60625/unit-1/home/12653379,MRED as Distributed by MLS Grid,11921421,N,Y,41.9700471,-87.7143352
MLS Listing,,Townhouse,1646 W Julian St Unit B,Chicago,IL,60622,680000,3,2.5,CHI - West Town,2400,,1995,12,283,113,Active,,,https://www.redfin.com/IL/Chicago/1646-W-Julian-St-60622/unit-B/home/14108414,MRED as Distributed by MLS Grid,11921446,N,Y,41.9085293,-87.6694571
MLS Listing,,Condo/Co-op,60 E Monroe St #3905,Chicago,IL,60603,445000,1,1.0,CHI - Loop,,,2006,12,,701,Active,,,https://www.redfin.com/IL/Chicago/60-E-Monroe-St-60603/unit-3905/home/45512060,MRED as Distributed by MLS Grid,11921334,N,Y,41.8809978,-87.6256565
MLS Listing,,Vacant Land,4427 N Mobile Ave,Chicago,IL,60630,280000,,,CHI - Portage Park,,4356,,13,,,Active,,,https://www.redfin.com/IL/Chicago/4427-N-Mobile-Ave-60630/home/13475503,MRED as Distributed by MLS Grid,11921010,N,Y,41.9611253,-87.784131
MLS Listing,,Condo/Co-op,4507 S Lake Park Ave Unit 2N,Chicago,IL,60653,279000,3,2.0,CHI - Kenwood,1450,,2000,14,192,297,Active,,,https://www.redfin.com/IL/Chicago/4507-S-Lake-Park-Ave-60653/unit-2N/home/12761035,MRED as Distributed by MLS Grid,11919704,N,Y,41.8133073,-87.5959757
MLS Listing,,Multi-Family (2-4 Unit),3601 N Sacramento Ave,Chicago,IL,60618,475000,5,3.0,CHI - Irving Park,,4356,1910,17,,,Active,,,https://www.redfin.com/IL/Chicago/3601-N-Sacramento-Ave-60618/home/13452659,MRED as Distributed by MLS Grid,11915208,N,Y,41.9468556,-87.7026164
MLS Listing,,Condo/Co-op,222 E Chestnut St Unit 6B,Chicago,IL,60611,775000,3,2.5,CHI - Near North Side,2400,,1931,17,323,1852,Active,,,https://www.redfin.com/IL/Chicago/222-E-Chestnut-St-60611/unit-6B/home/14118748,MRED as Distributed by MLS Grid,11918645,N,Y,41.8986915,-87.6209133
MLS Listing,,Single Family Residential,5713 W Leland Ave,Chicago,IL,60630,399000,3,3.0,CHI - Portage Park,1870,4007,1921,17,213,,Active,,,https://www.redfin.com/IL/Chicago/5713-W-Leland-Ave-60630/home/13475219,MRED as Distributed by MLS Grid,11888154,N,Y,41.9657225,-87.7705157
MLS Listing,,Condo/Co-op,3158 N Seminary Ave Unit 4A,Chicago,IL,60657,565000,2,2.0,CHI - Lake View,,,2005,18,,368,Active,,,https://www.redfin.com/IL/Chicago/3158-N-Seminary-Ave-60657/unit-4A/home/21791256,MRED as Distributed by MLS Grid,11917855,N,Y,41.939645,-87.6566807
MLS Listing,,Single Family Residential,5320 S Tripp Ave,Chicago,IL,60638,293500,4,1.0,CHI - Clearing,2130,,1939,18,138,,Active,,,https://www.redfin.com/IL/Chicago/5320-S-Tripp-Ave-60632/home/14020301,MRED as Distributed by MLS Grid,11915254,N,Y,41.7961314,-87.7296824
MLS Listing,,Condo/Co-op,2753 N Hampden Ct Unit 2B,Chicago,IL,60614,1895000,4,4.5,CHI - Lincoln Park,2902,,2019,18,653,650,Active,,,https://www.redfin.com/IL/Chicago/2753-N-Hampden-Ct-60614/unit-2B/home/144232690,MRED as Distributed by MLS Grid,11905082,N,Y,41.9322901,-87.6420418
MLS Listing,,Condo/Co-op,2909 N Sheridan Rd #1308,Chicago,IL,60657,159900,1,1.0,CHI - Lake View,700,,1954,18,228,690,Active,,,https://www.redfin.com/IL/Chicago/2909-N-Sheridan-Rd-60657/unit-1308/home/13370400,MRED as Distributed by MLS Grid,11917558,N,Y,41.9347042,-87.6390529
MLS Listing,,Condo/Co-op,20 N State St #304,Chicago,IL,60602,250000,1,1.0,CHI - Loop,,,1929,18,,428,Active,,,https://www.redfin.com/IL/Chicago/20-N-State-St-60602/unit-304/home/12679488,MRED as Distributed by MLS Grid,11915988,N,Y,41.8826997,-87.6282649
MLS Listing,,Condo/Co-op,1833 W Iowa St #3,Chicago,IL,60622,635000,2,2.0,CHI - West Town,1400,,2002,18,454,277,Active,,,https://www.redfin.com/IL/Chicago/1833-W-Iowa-St-60622/unit-3/home/12705579,MRED as Distributed by MLS Grid,11914618,N,Y,41.8976551,-87.6735704
MLS Listing,,Single Family Residential,3900 W Montrose Ave,Chicago,IL,60618,524900,5,4.0,CHI - Albany Park,2000,4138,1910,19,262,,Active,,,https://www.redfin.com/IL/Chicago/3900-W-Montrose-Ave-60618/home/13486508,MRED as Distributed by MLS Grid,11916433,N,Y,41.9611712,-87.7255787
MLS Listing,,Condo/Co-op,101 W Superior St #905,Chicago,IL,60654,470000,2,2.0,CHI - Near North Side,1075,,2004,20,437,726,Active,,,https://www.redfin.com/IL/Chicago/101-W-Superior-St-60654/unit-905/home/12638560,MRED as Distributed by MLS Grid,11915948,N,Y,41.8954259,-87.6317101
MLS Listing,,Single Family Residential,11347 S Church St,Chicago,IL,60643,285000,3,3.0,CHI - Morgan Park,1538,7501,1902,20,185,,Active,,,https://www.redfin.com/IL/Chicago/11347-S-Church-St-60643/home/13068932,MRED as Distributed by MLS Grid,11910538,N,Y,41.6874098,-87.6673793
MLS Listing,,Condo/Co-op,65 E Monroe St #4206,Chicago,IL,60603,775000,2,2.0,CHI - Loop,1430,,2008,20,542,1125,Active,,,https://www.redfin.com/IL/Chicago/65-E-Monroe-St-60603/unit-4206/home/39567239,MRED as Distributed by MLS Grid,11911007,N,Y,41.8806386,-87.6255308
MLS Listing,,Condo/Co-op,3201 W Leland Ave #212,Chicago,IL,60625,334900,2,2.0,CHI - Albany Park,,,2010,20,,378,Active,,,https://www.redfin.com/IL/Chicago/3201-W-Leland-Ave-60625/unit-212/home/45511602,MRED as Distributed by MLS Grid,11915547,N,Y,41.966384,-87.708777
MLS Listing,,Condo/Co-op,210 S Desplaines St #908,Chicago,IL,60661,225000,0,1.0,CHI - Near West Side,650,,2004,21,346,450,Active,,,https://www.redfin.com/IL/Chicago/210-S-Desplaines-St-60661/unit-908/home/12615798,MRED as Distributed by MLS Grid,11910651,N,Y,41.8789423,-87.6445088
MLS Listing,,Condo/Co-op,545 N Dearborn St #1206,Chicago,IL,60654,339000,1,1.0,CHI - Near North Side,750,,2003,21,452,546,Active,,,https://www.redfin.com/IL/Chicago/545-N-Dearborn-St-60654/unit-1206/home/185636982,MRED as Distributed by MLS Grid,11914710,N,Y,41.892138,-87.6293649
MLS Listing,,Condo/Co-op,848 W Erie St #2,Chicago,IL,60642,499900,2,2.0,CHI - West Town,,,2010,21,,115,Active,,,https://www.redfin.com/IL/Chicago/848-W-Erie-St-60642/unit-2/home/45508051,MRED as Distributed by MLS Grid,11914672,N,Y,41.8936162,-87.6495302
MLS Listing,,Condo/Co-op,2024 S Wabash Ave #204,Chicago,IL,60638,289900,2,2.0,CHI - Near South Side,1290,,1920,25,225,673,Active,,,https://www.redfin.com/IL/Chicago/2024-S-Wabash-Ave-60616/unit-204/home/12750218,MRED as Distributed by MLS Grid,11911642,N,Y,41.8546146,-87.6260075
MLS Listing,,Condo/Co-op,625 W Jackson Blvd #208,Chicago,IL,60661,374900,2,2.0,CHI - Near West Side,1286,,1918,25,292,625,Active,,,https://www.redfin.com/IL/Chicago/625-W-Jackson-Blvd-60661/unit-208/home/12736352,MRED as Distributed by MLS Grid,11912694,N,Y,41.8778774,-87.6435687
MLS Listing,,Single Family Residential,4140 S Calumet Ave,Chicago,IL,60653,624900,4,3.5,CHI - Grand Boulevard,3000,5070,2016,25,208,,Active,,,https://www.redfin.com/IL/Chicago/4140-S-Calumet-Ave-60653/home/58558998,MRED as Distributed by MLS Grid,11907344,N,Y,41.8190187,-87.6186077
MLS Listing,,Condo/Co-op,221 E Cullerton St #616,Chicago,IL,60616,255000,1,1.0,Prairie Avenue Lofts,950,,2003,25,268,422,Active,,,https://www.redfin.com/IL/Chicago/221-E-Cullerton-St-60616/unit-616/home/12707899,MRED as Distributed by MLS Grid,11912485,N,Y,41.8553079,-87.6210253
MLS Listing,,Condo/Co-op,1636 W Melrose St #104,Chicago,IL,60657,230000,1,1.0,CHI - Lake View,,,1925,25,,197,Active,,,https://www.redfin.com/IL/Chicago/1636-W-Melrose-St-60657/unit-104/home/12743685,MRED as Distributed by MLS Grid,11912429,N,Y,41.9408453,-87.6701752
MLS Listing,,Condo/Co-op,3242 N Milwaukee Ave Unit 4N,Chicago,IL,60618,585000,3,2.0,CHI - Avondale,1850,,2010,26,316,250,Active,,,https://www.redfin.com/IL/Chicago/3242-N-Milwaukee-Ave-60618/unit-4N/home/88575917,MRED as Distributed by MLS Grid,11911517,N,Y,41.9398362,-87.7255155
MLS Listing,,Condo/Co-op,230 W Division St #702,Chicago,IL,60610,449000,2,2.0,Venetian,1300,,2004,26,345,842,Active,,,https://www.redfin.com/IL/Chicago/230-W-Division-St-60610/unit-702/home/12650713,MRED as Distributed by MLS Grid,11911473,N,Y,41.9040532,-87.6357004
MLS Listing,,Single Family Residential,1319 W 32nd Pl,Chicago,IL,60608,745000,4,3.5,CHI - Bridgeport,3000,2918,2005,27,248,180,Active,,,https://www.redfin.com/IL/Chicago/1319-W-32nd-Pl-60608/home/26821876,MRED as Distributed by MLS Grid,11906827,N,Y,41.8347789,-87.6594424
MLS Listing,,Condo/Co-op,2028 W Augusta Blvd Unit 2E,Chicago,IL,60622,464900,2,2.0,CHI - West Town,1250,,2008,27,372,197,Active,,,https://www.redfin.com/IL/Chicago/2028-W-Augusta-Blvd-60622/unit-2E/home/26812669,MRED as Distributed by MLS Grid,11910640,N,Y,41.8997658,-87.6783192
MLS Listing,,Townhouse,1640 N Orchard St Unit B,Chicago,IL,60614,1025000,3,3.0,CHI - Lincoln Park,2500,2950,1985,27,410,,Active,,,https://www.redfin.com/IL/Chicago/1640-N-Orchard-St-60614/unit-B/home/13346478,MRED as Distributed by MLS Grid,11909439,N,Y,41.9121694,-87.6462332
MLS Listing,,Townhouse,1001 S Plymouth Ct Unit A,Chicago,IL,60605,569000,3,2.5,CHI - Loop,1800,,1980,27,316,430,Active,,,https://www.redfin.com/IL/Chicago/1001-S-Plymouth-Ct-60605/unit-A/home/14090734,MRED as Distributed by MLS Grid,11910458,N,Y,41.869628,-87.6277476
MLS Listing,,Single Family Residential,8216 S Hermitage Ave,Chicago,IL,60620,231000,4,2.5,CHI - Auburn Gresham,1479,3920,1924,31,156,,Active,,,https://www.redfin.com/IL/Chicago/8216-S-Hermitage-Ave-60620/home/13907407,MRED as Distributed by MLS Grid,11905650,N,Y,41.744308,-87.6674053
MLS Listing,,Condo/Co-op,756 W 14th St #301,Chicago,IL,60607,284900,2,1.0,CHI - Near West Side,1000,,2007,31,285,475,Active,,,https://www.redfin.com/IL/Chicago/756-W-14th-St-60607/unit-301/home/21809396,MRED as Distributed by MLS Grid,11904617,N,Y,41.8636833,-87.6464505
MLS Listing,,Single Family Residential,6004 S May St,Chicago,IL,60621,169900,4,2.0,CHI - Englewood,1828,,1950,31,93,,Active,,,https://www.redfin.com/IL/Chicago/6004-S-May-St-60621/home/13939498,MRED as Distributed by MLS Grid,11905414,N,Y,41.7848106,-87.6537393
MLS Listing,,Condo/Co-op,7442 N Hermitage Ave Unit 1J,Chicago,IL,60626,260000,3,2.0,Hermitage Manor,1510,,1948,32,172,373,Active,,,https://www.redfin.com/IL/Chicago/7442-N-Hermitage-Ave-60626/unit-1J/home/176999700,MRED as Distributed by MLS Grid,11903067,N,Y,42.0172019,-87.6740429
MLS Listing,,Condo/Co-op,550 N Saint Clair St #1406,Chicago,IL,60611,359900,1,1.0,CHI - Near North Side,850,,2008,33,423,595,Active,,,https://www.redfin.com/IL/Chicago/550-N-Saint-Clair-St-60611/unit-1406/home/45508350,MRED as Distributed by MLS Grid,11906717,N,Y,41.8922991,-87.6229169
MLS Listing,,Condo/Co-op,1850 N Clark St #2803,Chicago,IL,60614,350000,2,2.0,Hemingway House,1100,,1968,33,318,1182,Active,,,https://www.redfin.com/IL/Chicago/1850-N-Clark-St-60614/unit-2803/home/13345202,MRED as Distributed by MLS Grid,11901057,N,Y,41.9163638,-87.6349749
MLS Listing,,Multi-Family (2-4 Unit),1539 N Kolin Ave,Chicago,IL,60651,450000,6,3.0,CHI - Humboldt Park,,3049,1914,34,,,Active,,,https://www.redfin.com/IL/Chicago/1539-N-Kolin-Ave-60651/home/183050933,MRED as Distributed by MLS Grid,11905220,N,Y,41.9088056,-87.7347993
MLS Listing,,Condo/Co-op,702 E 51st St #3,Chicago,IL,60615,260000,3,2.0,Parkview Condos,1600,,1906,38,163,377,Active,,,https://www.redfin.com/IL/Chicago/702-E-51st-St-60615/unit-3/home/12761478,MRED as Distributed by MLS Grid,11903334,N,Y,41.8024517,-87.6085902
MLS Listing,,Single Family Residential,6933 S East End Ave,Chicago,IL,60649,325000,4,3.0,CHI - South Shore,1440,31058,2000,39,226,,Active,,,https://www.redfin.com/IL/Chicago/6933-S-East-End-Ave-60649/home/13926990,MRED as Distributed by MLS Grid,11890411,N,Y,41.7688714,-87.5824877
MLS Listing,,Condo/Co-op,3705 W Altgeld St #1,Chicago,IL,60647,238000,2,1.0,CHI - Logan Square,,,1932,39,,211,Active,,,https://www.redfin.com/IL/Chicago/3705-W-Altgeld-St-60647/unit-1/home/23019906,MRED as Distributed by MLS Grid,11896491,N,Y,41.9262913,-87.7198726
MLS Listing,,Condo/Co-op,240 E Illinois St #2603,Chicago,IL,60611,424000,1,1.0,CHI - Near North Side,,,2008,40,,745,Active,,,https://www.redfin.com/IL/Chicago/240-E-Illinois-St-60611/unit-2603/home/13150347,MRED as Distributed by MLS Grid,11893387,N,Y,41.8911546,-87.6210377
MLS Listing,,Single Family Residential,4339 S Oakenwald Ave,Chicago,IL,60653,709000,4,3.0,CHI - Kenwood,3200,3092,2000,40,222,,Active,,,https://www.redfin.com/IL/Chicago/4339-S-Oakenwald-Ave-60653/home/12784933,MRED as Distributed by MLS Grid,11901166,N,Y,41.8159812,-87.5965146
MLS Listing,,Vacant Land,2434 N Saint Louis Ave,Chicago,IL,60647,415000,,,CHI - Logan Square,,3049,,42,,,Active,,,https://www.redfin.com/IL/Chicago/2434-N-Saint-Louis-Ave-60647/home/13444893,MRED as Distributed by MLS Grid,11898516,N,Y,41.9256343,-87.7149278
MLS Listing,,Multi-Family (2-4 Unit),3657 N Lotus Ave,Chicago,IL,60641,730000,6,3.5,CHI - Portage Park,,3750,1925,42,,,Active,,,https://www.redfin.com/IL/Chicago/3657-N-Lotus-Ave-60641/home/187793645,MRED as Distributed by MLS Grid,11894164,N,Y,41.9476172,-87.7628491
MLS Listing,,Condo/Co-op,175 E Delaware Pl #7508,Chicago,IL,60611,2449900,4,4.5,CHI - Near North Side,4200,,1970,45,583,3998,Active,,,https://www.redfin.com/IL/Chicago/175-E-Delaware-Pl-60611/unit-7508/home/14119131,MRED as Distributed by MLS Grid,11897515,N,Y,41.8990143,-87.6228548
MLS Listing,,Townhouse,2405 W Flournoy St Unit B,Chicago,IL,60612,349900,2,1.5,CHI - Near West Side,1500,,1997,46,233,216,Active,,,https://www.redfin.com/IL/Chicago/2405-W-Flournoy-St-60612/unit-B/home/12791576,MRED as Distributed by MLS Grid,11890328,N,Y,41.8728108,-87.6865178
MLS Listing,,Condo/Co-op,1515 S Prairie Ave #1004,Chicago,IL,60605,287000,1,1.5,CHI - Near South Side,900,,2003,49,319,807,Active,,,https://www.redfin.com/IL/Chicago/1515-S-Prairie-Ave-60605/unit-1004/home/12675088,MRED as Distributed by MLS Grid,11893269,N,Y,41.8617675,-87.6202181
MLS Listing,,Multi-Family (2-4 Unit),2500 N Mozart St,Chicago,IL,60647,1424900,6,5.5,CHI - Logan Square,,,1909,53,,,Active,,,https://www.redfin.com/IL/Chicago/2500-N-Mozart-St-60647/home/13450194,MRED as Distributed by MLS Grid,11891450,N,Y,41.9267365,-87.6989904
MLS Listing,,Vacant Land,11353 S Forest Ave,Chicago,IL,60628,24900,,,CHI - Roseland,,,,53,,,Active,,,https://www.redfin.com/IL/Chicago/11353-S-Forest-Ave-60628/home/13061624,MRED as Distributed by MLS Grid,11888172,N,Y,41.6875659,-87.615311
MLS Listing,,Single Family Residential,915 W 123rd St,Calumet Park,IL,60827,189900,4,2.0,Calumet Park,1400,4329,1913,55,136,,Active,,,https://www.redfin.com/IL/Calumet-Park/915-W-123rd-St-60827/home/13051142,MRED as Distributed by MLS Grid,11888919,N,Y,41.6703091,-87.6449776
MLS Listing,,Condo/Co-op,125 S Jefferson St #2408,Chicago,IL,60661,255000,1,1.0,CHI - Near West Side,780,,2003,59,327,580,Active,,,https://www.redfin.com/IL/Chicago/125-S-Jefferson-St-60661/unit-2408/home/12679364,MRED as Distributed by MLS Grid,11884131,N,Y,41.879941,-87.6421575
MLS Listing,,Multi-Family (5+ Unit),3259 W 62nd Pl,Chicago,IL,60629,1150000,24,12.0,CHI - Chicago Lawn,,7993,1923,59,,,Active,,,https://www.redfin.com/IL/Chicago/3259-W-62nd-Pl-60629/home/14008338,MRED as Distributed by MLS Grid,11886436,N,Y,41.7797208,-87.7052113
MLS Listing,,Single Family Residential,3009 N Newland Ave,Chicago,IL,60634,399900,4,3.5,CHI - Montclare,1190,,1968,60,336,,Active,,,https://www.redfin.com/IL/Chicago/3009-N-Newland-Ave-60634/home/13435309,MRED as Distributed by MLS Grid,11885328,N,Y,41.9347955,-87.7989839
MLS Listing,,Condo/Co-op,1415 N Dearborn St Unit 21B,Chicago,IL,60610,289999,2,2.0,CHI - Near North Side,1300,,1973,63,223,1264,Active,,,https://www.redfin.com/IL/Chicago/1415-N-Dearborn-St-60610/unit-21B/home/14114779,MRED as Distributed by MLS Grid,11879459,N,Y,41.9082511,-87.6297466
MLS Listing,,Condo/Co-op,400 W Huron St #1002,Chicago,IL,60654,1499900,3,2.5,CHI - Near North Side,2200,,2017,63,682,2359,Active,,,https://www.redfin.com/IL/Chicago/400-W-Huron-St-60654/unit-1002/home/113165022,MRED as Distributed by MLS Grid,11882055,N,Y,41.8949755,-87.6387316
MLS Listing,,Condo/Co-op,1872 N Clybourn Ave #110,Chicago,IL,60614,469900,2,1.5,Clybourn Lofts,,,1901,66,,702,Active,,,https://www.redfin.com/IL/Chicago/1872-N-Clybourn-Ave-60614/unit-110/home/13350915,MRED as Distributed by MLS Grid,11880966,N,Y,41.915025,-87.655973
MLS Listing,,Condo/Co-op,1360 N Sandburg Ter Unit 608C,Chicago,IL,60610,229900,1,1.0,CHI - Near North Side,800,,1965,67,287,613,Active,,,https://www.redfin.com/IL/Chicago/1360-N-Sandburg-Ter-60610/unit-608C/home/14113822,MRED as Distributed by MLS Grid,11870891,N,Y,41.9074567,-87.6325602
MLS Listing,,Condo/Co-op,1371 W Crystal St Unit C,Chicago,IL,60642,339900,2,2.0,CHI - West Town,1200,,,67,283,164,Active,,,https://www.redfin.com/IL/Chicago/1371-W-Crystal-St-60642/unit-C/home/12564575,MRED as Distributed by MLS Grid,11847028,N,Y,41.9042639,-87.6621131
MLS Listing,,Condo/Co-op,340 W Superior St #804,Chicago,IL,60654,589000,2,2.0,CHI - Near North Side,1530,,2002,68,385,1255,Active,,,https://www.redfin.com/IL/Chicago/340-W-Superior-St-60654/unit-804/home/12680969,MRED as Distributed by MLS Grid,11871229,N,Y,41.8957828,-87.6377203
MLS Listing,,Condo/Co-op,2 E Erie St #2605,Chicago,IL,60611,484900,2,2.0,CHI - Near North Side,1295,,1999,69,374,979,Active,,,https://www.redfin.com/IL/Chicago/2-E-Erie-St-60611/unit-2605/home/12607722,MRED as Distributed by MLS Grid,11877415,N,Y,41.8943685,-87.6275053
MLS Listing,,Condo/Co-op,260 E Chestnut St #1208,Chicago,IL,60611,165000,0,1.0,Plaza on DeWitt,560,,1963,76,295,464,Active,,,https://www.redfin.com/IL/Chicago/260-E-Chestnut-St-60611/unit-1208/home/14118401,MRED as Distributed by MLS Grid,11869928,N,Y,41.8985263,-87.6196672
MLS Listing,,Single Family Residential,9368 S Longwood Dr,Chicago,IL,60643,629900,4,3.5,CHI - Beverly,3355,8494,1905,76,188,,Active,,,https://www.redfin.com/IL/Chicago/9368-S-Longwood-Dr-60643/home/13100165,MRED as Distributed by MLS Grid,11866319,N,Y,41.7234119,-87.6686121
MLS Listing,,Condo/Co-op,2403 W Berenice Ave #201,Chicago,IL,60618,550000,3,2.0,CHI - North Center,,,2019,77,,345,Active,,,https://www.redfin.com/IL/Chicago/2403-W-Berenice-Ave-60618/unit-201/home/185268096,MRED as Distributed by MLS Grid,11871343,N,Y,41.9511881,-87.6886895
MLS Listing,,Condo/Co-op,125 E 13th St #1003,Chicago,IL,60605,399900,2,2.0,Museum Park Lofts,,,2005,87,,542,Active,,,https://www.redfin.com/IL/Chicago/125-E-13th-St-60605/unit-1003/home/12637702,MRED as Distributed by MLS Grid,11860892,N,Y,41.8655862,-87.62288
MLS Listing,,Single Family Residential,1035 W 92nd Pl,Chicago,IL,60620,289900,5,2.5,CHI - Washington Heights,1986,3750,1926,88,146,,Active,,,https://www.redfin.com/IL/Chicago/1035-W-92nd-Pl-60620/home/186780933,MRED as Distributed by MLS Grid,11860965,N,Y,41.7257021,-87.6495795
MLS Listing,,Single Family Residential,3504 W Medill Ave,Chicago,IL,60647,710000,4,3.5,CHI - Logan Square,2523,,1890,88,281,,Active,,,https://www.redfin.com/IL/Chicago/3504-W-Medill-Ave-60647/home/13420950,MRED as Distributed by MLS Grid,11861896,N,Y,41.9239162,-87.7140939
MLS Listing,,Condo/Co-op,900 W Jackson Blvd Unit 7W,Chicago,IL,60607,799000,3,1.5,CHI - Near West Side,2300,,1905,95,347,963,Active,,,https://www.redfin.com/IL/Chicago/900-W-Jackson-Blvd-60607/unit-7W/home/186274653,MRED as Distributed by MLS Grid,11853559,N,Y,41.8780558,-87.6499
MLS Listing,,Condo/Co-op,757 N Orleans St #811,Chicago,IL,60654,479900,2,2.0,CHI - Near North Side,1248,,2008,98,385,665,Active,,,https://www.redfin.com/IL/Chicago/757-N-Orleans-St-60654/unit-811/home/52637338,MRED as Distributed by MLS Grid,11853660,N,Y,41.8963014,-87.6365635
MLS Listing,,Condo/Co-op,4914 S Drexel Blvd Unit 2W,Chicago,IL,60615,165000,2,1.0,CHI - Kenwood,1200,,1922,102,138,558,Active,,,https://www.redfin.com/IL/Chicago/4914-S-Drexel-Blvd-60615/unit-2W/home/21784318,MRED as Distributed by MLS Grid,11849788,N,Y,41.8053822,-87.6044885
MLS Listing,,Single Family Residential,1518 E 73rd Pl,Chicago,IL,60619,360000,5,2.0,CHI - South Shore,1880,5227,1923,102,191,,Active,,,https://www.redfin.com/IL/Chicago/1518-E-73rd-Pl-60619/home/12598629,MRED as Distributed by MLS Grid,11840570,N,Y,41.761747,-87.587689
MLS Listing,,Condo/Co-op,3051 W Armitage Ave Unit 3W,Chicago,IL,60647,580000,3,2.0,CHI - Logan Square,1573,,2019,110,369,211,Active,,,https://www.redfin.com/IL/Chicago/3051-W-Armitage-Ave-60647/unit-3W/home/178526247,MRED as Distributed by MLS Grid,11842856,N,Y,41.9172019,-87.7043679
MLS Listing,,Single Family Residential,3327 W Glenlake Ave,Chicago,IL,60659,1149000,6,4.5,CHI - North Park,3800,8276,1946,111,302,,Active,,,https://www.redfin.com/IL/Chicago/3327-W-Glenlake-Ave-60659/home/13516913,MRED as Distributed by MLS Grid,11807188,N,Y,41.991859,-87.7125194
MLS Listing,,Condo/Co-op,840 N Lake Shore Dr #1803,Chicago,IL,60611,2350000,3,3.5,CHI - Near North Side,3200,,2003,130,734,3460,Active,,,https://www.redfin.com/IL/Chicago/840-N-Lake-Shore-Dr-60611/unit-1803/home/12681894,MRED as Distributed by MLS Grid,11798605,N,Y,41.8979713,-87.6180674
MLS Listing,,Condo/Co-op,400 N La Salle Dr #1112,Chicago,IL,60654,287500,1,1.0,CHI - Near North Side,723,,2003,131,398,483,Active,,,https://www.redfin.com/IL/Chicago/400-N-La-Salle-Dr-60654/unit-1112/home/12620950,MRED as Distributed by MLS Grid,11823017,N,Y,41.8897707,-87.6329244
MLS Listing,,Condo/Co-op,3256 W Polk St Unit 3E,Chicago,IL,60624,164900,2,1.0,CHI - East Garfield Park,816,,1911,254,202,294,Active,,,https://www.redfin.com/IL/Chicago/3256-W-Polk-St-60624/unit-3E/home/146001186,MRED as Distributed by MLS Grid,11723006,N,Y,41.8711512,-87.7080632
MLS Listing,,Condo/Co-op,3836 W Lexington St #1,Chicago,IL,60624,100000,4,1.0,CHI - West Garfield Park,1200,,1904,361,83,,Active,,,https://www.redfin.com/IL/Chicago/3836-W-Lexington-St-60624/unit-1/home/13256848,MRED as Distributed by MLS Grid,11645555,N,Y,41.8719103,-87.7218986
Redfin Data,,Condo/Co-op,2444 W Berwyn Ave Unit 1N,Chicago,IL,60625,190000,2,1.0,Chicago,1000,,1954,4,190,175,Pre On-Market,,,https://www.redfin.com/IL/Chicago/2444-W-Berwyn-Ave-60625/unit-1N/home/12774965,Coming Soon,95681,N,Y,41.9784773,-87.6909609
Redfin Data,,Single Family Residential,7720 S Marshfield Ave,Chicago,IL,60620,309900,3,2.5,Chicago,2208,10890,1921,7,140,,Pre On-Market,,,https://www.redfin.com/IL/Chicago/7720-S-Marshfield-Ave-60620/home/13909376,Coming Soon,95635,N,Y,41.753274,-87.665076
Redfin Data,,Single Family Residential,2824 N Springfield Ave,Chicago,IL,60618,799900,7,2.5,Chicago,1900,3876,1950,131,421,,Pre On-Market,,,https://www.redfin.com/IL/Chicago/2824-N-Springfield-Ave-60618/home/13448001,Coming Soon,93627,N,Y,41.9325901,-87.7248069
MLS Listing,,Condo/Co-op,3950 N Lake Shore Dr #928,Chicago,IL,60613,279900,3,1.5,CHI - Lake View,1200,,1955,1,233,1015,Active,,,https://www.redfin.com/IL/Chicago/3950-N-Lake-Shore-Dr-60613/unit-928/home/13378674,MRED as Distributed by MLS Grid,11929478,N,Y,41.9542313,-87.6458372
MLS Listing,,Single Family Residential,949 N Monticello Ave,Chicago,IL,60651,699500,5,5.5,CHI - Humboldt Park,3480,3125,2023,1,201,,Active,,,https://www.redfin.com/IL/Chicago/949-N-Monticello-Ave-60651/home/108469966,MRED as Distributed by MLS Grid,11929477,N,Y,41.8987244,-87.7173578
MLS Listing,,Single Family Residential,903 S Mason Ave,Chicago,IL,60644,299999,3,2.0,CHI - Austin,1000,,1922,1,300,,Active,,,https://www.redfin.com/IL/Chicago/903-S-Mason-Ave-60644/home/13251307,MRED as Distributed by MLS Grid,11929027,N,Y,41.8701955,-87.7727547
MLS Listing,,Single Family Residential,3109 N Washtenaw Ave,Chicago,IL,60618,1299500,4,2.5,CHI - Avondale,3200,5400,1892,1,406,,Active,,,https://www.redfin.com/IL/Chicago/3109-N-Washtenaw-Ave-60618/home/13451017,MRED as Distributed by MLS Grid,11915937,N,Y,41.9381095,-87.6949431
MLS Listing,,Single Family Residential,5731 N Maplewood Ave,Chicago,IL,60659,550000,4,3.0,CHI - West Ridge,,4125,,1,,,Active,,,https://www.redfin.com/IL/Chicago/5731-N-Maplewood-Ave-60659/home/13519341,MRED as Distributed by MLS Grid,11929475,N,Y,41.9859122,-87.692953
MLS Listing,,Single Family Residential,2052 N Newland Ave,Chicago,IL,60707,549500,5,3.0,Galewood,,10000,,1,,,Active,,,https://www.redfin.com/IL/Chicago/2052-N-Newland-Ave-60707/home/13432469,MRED as Distributed by MLS Grid,11929474,N,Y,41.9178159,-87.7994315
MLS Listing,,Single Family Residential,6149 S Rutherford Ave,Chicago,IL,60638,324000,3,2.0,CHI - Clearing,1132,3750,1961,1,286,,Active,,,https://www.redfin.com/IL/Chicago/6149-S-Rutherford-Ave-60638/home/13998518,MRED as Distributed by MLS Grid,11929243,N,Y,41.7797862,-87.7896166
MLS Listing,,Condo/Co-op,88 W Schiller St Unit 2905L,Chicago,IL,60610,289500,1,1.0,Sandburg Village,,,1968,1,,651,Active,,,https://www.redfin.com/IL/Chicago/88-W-Schiller-St-60610/unit-2905L/home/14115058,MRED as Distributed by MLS Grid,11929472,N,Y,41.9080921,-87.6312196
MLS Listing,,Single Family Residential,1226 W 112th Pl,Chicago,IL,60643,229900,4,2.0,Maple Park,2080,3550,1964,1,111,,Active,,,https://www.redfin.com/IL/Chicago/1226-W-112th-Pl-60643/home/13069499,MRED as Distributed by MLS Grid,11929205,N,Y,41.6896247,-87.6530868
MLS Listing,,Single Family Residential,631 N Long Ave,Chicago,IL,60644,369500,5,3.0,CHI - Austin,1640,3325,1923,1,225,,Active,,,https://www.redfin.com/IL/Chicago/631-N-Long-Ave-60644/home/13266698,MRED as Distributed by MLS Grid,11929295,N,Y,41.8920886,-87.7602357
MLS Listing,,Multi-Family (2-4 Unit),3442 N Halsted St,Chicago,IL,60657,1450000,9,7.5,CHI - Lake View,,3050,,1,,,Active,,,https://www.redfin.com/IL/Chicago/3442-N-Halsted-St-60657/home/186273520,MRED as Distributed by MLS Grid,11924605,N,Y,41.9448577,-87.6496542
MLS Listing,,Single Family Residential,6842 S Justine St,Chicago,IL,60636,49900,3,1.0,CHI - West Englewood,3025,3005,1900,1,16,,Active,,,https://www.redfin.com/IL/Chicago/6842-S-Justine-St-60636/home/13932009,MRED as Distributed by MLS Grid,11929433,N,Y,41.7690955,-87.6629779
MLS Listing,,Condo/Co-op,1934 W Belmont Ave Unit 3E,Chicago,IL,60657,709900,2,2.0,CHI - North Center,,,2023,1,,179,Active,,,https://www.redfin.com/IL/Chicago/1934-W-Belmont-Ave-60657/unit-3E/home/186139358,MRED as Distributed by MLS Grid,11929444,N,Y,41.9398133,-87.677311
MLS Listing,,Multi-Family (2-4 Unit),2906 E 91st St,Chicago,IL,60617,320000,9,3.0,CHI - South Chicago,,,1890,1,,,Active,,,https://www.redfin.com/IL/Chicago/2906-E-91st-St-60617/home/13045155,MRED as Distributed by MLS Grid,11929235,N,Y,41.7302851,-87.5536325
MLS Listing,,Single Family Residential,9934 S Malta St,Chicago,IL,60643,150000,3,2.0,CHI - Beverly,,3223,1891,1,,,Active,,,https://www.redfin.com/IL/Chicago/9934-S-Malta-St-60643/home/13094906,MRED as Distributed by MLS Grid,11929434,N,Y,41.7129284,-87.6601284
MLS Listing,,Condo/Co-op,55 W Erie St Unit GE,Chicago,IL,60654,324900,2,1.5,CHI - Near North Side,1200,,1884,1,271,369,Active,,,https://www.redfin.com/IL/Chicago/55-W-Erie-St-60654/unit-GE/home/14101707,MRED as Distributed by MLS Grid,11929430,N,Y,41.8938783,-87.6302416
MLS Listing,,Multi-Family (2-4 Unit),1429 N Leclaire Ave,Chicago,IL,60651,499900,5,2.0,CHI - Austin,,5458068,1913,1,,,Active,,,https://www.redfin.com/IL/Chicago/1429-N-Leclaire-Ave-60651/home/184746689,MRED as Distributed by MLS Grid,11929415,N,Y,41.9067851,-87.7531128
MLS Listing,,Multi-Family (2-4 Unit),5013 W Superior St,Chicago,IL,60644,349900,4,3.0,CHI - Austin,,3125,1905,1,,,Active,,,https://www.redfin.com/IL/Chicago/5013-W-Superior-St-60644/home/13265967,MRED as Distributed by MLS Grid,11909223,N,Y,41.8938173,-87.7512833
MLS Listing,,Condo/Co-op,3258 N Harlem Ave #506,Chicago,IL,60634,259900,2,2.0,CHI - Dunning,,,2006,1,,327,Active,,,https://www.redfin.com/IL/Chicago/3258-N-Harlem-Ave-60634/unit-506/home/12605071,MRED as Distributed by MLS Grid,11926603,N,Y,41.9394508,-87.8071296
MLS Listing,,Condo/Co-op,2105 W Caton St #303,Chicago,IL,60647,599000,2,2.0,CHI - West Town,,,2023,1,,250,Active,,,https://www.redfin.com/IL/Chicago/2105-W-Caton-St-60647/unit-303/home/185653950,MRED as Distributed by MLS Grid,11929174,N,Y,41.9117586,-87.6801944
MLS Listing,,Single Family Residential,4124 N Saint Louis Ave,Chicago,IL,60618,876000,4,3.5,CHI - Irving Park,3250,3149,,1,270,,Active,,,https://www.redfin.com/IL/Chicago/4124-N-Saint-Louis-Ave-60618/home/13482526,MRED as Distributed by MLS Grid,11929331,N,Y,41.9564471,-87.715703
MLS Listing,,Condo/Co-op,7100 W Cullom Ave #219,Norridge,IL,60706,255000,2,1.5,Norridge House,1100,,1984,1,232,250,Active,,,https://www.redfin.com/IL/Norridge/7100-W-Cullom-Ave-60706/unit-219/home/13471979,MRED as Distributed by MLS Grid,11909578,N,Y,41.9587273,-87.8054218
MLS Listing,,Single Family Residential,8417 S Scottsdale Ave S,Chicago,IL,60652,214999,3,1.0,CHI - Ashburn,1000,5040,1955,1,215,,Active,,,https://www.redfin.com/IL/Chicago/8417-S-Scottsdale-Ave-60652/home/13969754,MRED as Distributed by MLS Grid,11929034,N,Y,41.7397694,-87.7344411
MLS Listing,,Condo/Co-op,757 N Orleans St #612,Chicago,IL,60654,575000,2,2.0,CHI - Near North Side,1248,,2008,1,461,570,Active,,,https://www.redfin.com/IL/Chicago/757-N-Orleans-St-60654/unit-612/home/52637664,MRED as Distributed by MLS Grid,11928988,N,Y,41.8963014,-87.6365635
MLS Listing,,Multi-Family (2-4 Unit),4123 W Washington Blvd,Chicago,IL,60624,354900,10,4.5,CHI - West Garfield Park,,3125,,1,,,Active,,,https://www.redfin.com/IL/Chicago/4123-W-Washington-Blvd-60624/home/13262298,MRED as Distributed by MLS Grid,11929337,N,Y,41.881709,-87.7292091
MLS Listing,,Condo/Co-op,4944 N Spaulding Ave Unit G,Chicago,IL,60625,204500,2,1.0,CHI - Albany Park,1200,,,1,170,256,Active,,,https://www.redfin.com/IL/Chicago/4944-N-Spaulding-Ave-60625/unit-G/home/12653392,MRED as Distributed by MLS Grid,11929323,N,Y,41.9715619,-87.711331
MLS Listing,,Multi-Family (2-4 Unit),2108 S 47th Ct,Cicero,IL,60804,148000,4,2.0,Cicero,,3484,1908,1,,,Active,,,https://www.redfin.com/IL/Cicero/2108-S-47th-Ct-60804/home/13235737,MRED as Distributed by MLS Grid,11929306,N,Y,41.8526792,-87.7433745
MLS Listing,,Condo/Co-op,111 E Chestnut St Unit 34K,Chicago,IL,60611,799000,2,2.0,CHI - Near North Side,1600,,1972,1,499,1482,Active,November-18-2023 11:00 AM,November-18-2023 01:00 PM,https://www.redfin.com/IL/Chicago/111-E-Chestnut-St-60611/unit-34K/home/183686820,MRED as Distributed by MLS Grid,11929279,N,Y,41.8978884,-87.6251938
MLS Listing,,Multi-Family (2-4 Unit),1007 W 62nd St,Chicago,IL,60621,179000,4,3.0,CHI - Englewood,,1250,1920,1,,,Active,,,https://www.redfin.com/IL/Chicago/1007-W-62nd-St-60621/home/13939097,MRED as Distributed by MLS Grid,11929301,N,Y,41.7813283,-87.6500902
MLS Listing,,Multi-Family (2-4 Unit),7538 S Perry Ave,Chicago,IL,60620,180000,8,4.0,CHI - Greater Grand Crossing,,8000,1929,1,,,Active,,,https://www.redfin.com/IL/Chicago/7538-S-Perry-Ave-60620/home/13916405,MRED as Distributed by MLS Grid,11929280,N,Y,41.7569893,-87.6283364
MLS Listing,,Condo/Co-op,6700 S South Shore Dr Unit 2J,Chicago,IL,60649,99000,1,1.0,CHI - South Shore,800,,1970,1,124,560,Active,,,https://www.redfin.com/IL/Chicago/6700-S-South-Shore-Dr-60649/unit-2J/home/12691087,MRED as Distributed by MLS Grid,11929265,N,Y,41.7732979,-87.5670874
MLS Listing,,Single Family Residential,3034 W Pershing Rd,Chicago,IL,60632,349000,5,2.0,CHI - Brighton Park,3125,3123,,1,112,,Active,,,https://www.redfin.com/IL/Chicago/3034-W-Pershing-Rd-60632/home/14128128,MRED as Distributed by MLS Grid,11929292,N,Y,41.8228497,-87.700896
MLS Listing,,Multi-Family (2-4 Unit),3615 N Albany Ave,Chicago,IL,60618,719000,5,2.5,CHI - Irving Park,,,1906,1,,,Active,,,https://www.redfin.com/IL/Chicago/3615-N-Albany-Ave-60618/home/188549829,MRED as Distributed by MLS Grid,11922001,N,Y,41.9471305,-87.7050971
MLS Listing,,Condo/Co-op,4011 N Francisco Ave #101,Chicago,IL,60618,272500,1,1.0,CHI - Irving Park,900,,2004,1,303,229,Active,,,https://www.redfin.com/IL/Chicago/4011-N-Francisco-Ave-60618/unit-101/home/12659830,MRED as Distributed by MLS Grid,11929278,N,Y,41.9542549,-87.7003782
MLS Listing,,Condo/Co-op,4300 N Marine Dr #1706,Chicago,IL,60613,245000,1,1.0,CHI - Uptown,1200,,1929,1,204,1016,Active,,,https://www.redfin.com/IL/Chicago/4300-N-Marine-Dr-60613/unit-1706/home/13397475,MRED as Distributed by MLS Grid,11929263,N,Y,41.9613116,-87.6471009
MLS Listing,,Condo/Co-op,6252 S Gullikson Rd Unit 1S,Chicago,IL,60638,224900,2,2.0,CHI - Clearing,,,1990,1,,160,Active,,,https://www.redfin.com/IL/Chicago/6252-S-Gullikson-Rd-60638/unit-1S/home/187016825,MRED as Distributed by MLS Grid,11924007,N,Y,41.7780125,-87.7984478
MLS Listing,,Single Family Residential,3031 N Oleander Ave,Chicago,IL,60707,499899,5,3.0,CHI - Dunning,2036,4390,1953,1,246,,Active,,,https://www.redfin.com/IL/Chicago/3031-N-Oleander-Ave-60707/home/13539526,MRED as Distributed by MLS Grid,11929030,N,Y,41.9353313,-87.8149227
MLS Listing,,Multi-Family (2-4 Unit),341 W 108th Pl,Chicago,IL,60628,119900,4,2.5,CHI - Roseland,,,1925,1,,,Active,,,https://www.redfin.com/IL/Chicago/341-W-108th-Pl-60628/home/13075721,MRED as Distributed by MLS Grid,11929236,N,Y,41.6968431,-87.6320378
MLS Listing,,Multi-Family (2-4 Unit),2038 S Ruble St,Chicago,IL,60616,319900,4,2.0,CHI - Lower West Side,,3600,1890,1,,,Active,,,https://www.redfin.com/IL/Chicago/2038-S-Ruble-St-60616/home/14085182,MRED as Distributed by MLS Grid,11928537,N,Y,41.8546984,-87.6439449
MLS Listing,,Single Family Residential,3427 N Overhill Ave,Chicago,IL,60634,315000,2,2.0,CHI - Dunning,,3125,,1,,,Active,,,https://www.redfin.com/IL/Chicago/3427-N-Overhill-Ave-60634/home/13542350,MRED as Distributed by MLS Grid,11929234,N,Y,41.9421479,-87.818872
MLS Listing,,Multi-Family (2-4 Unit),1928 S Ridgeway Ave,Chicago,IL,60623,100000,5,2.0,CHI - North Lawndale,,2613,1903,1,,,Active,,,https://www.redfin.com/IL/Chicago/1928-S-Ridgeway-Ave-60623/home/12568843,MRED as Distributed by MLS Grid,11928975,N,Y,41.8541692,-87.7190511
MLS Listing,,Single Family Residential,1930 W Grace St,Chicago,IL,60613,1350000,4,3.5,CHI - North Center,3780,4125,1905,1,357,,Active,,,https://www.redfin.com/IL/Chicago/1930-W-Grace-St-60613/home/13387463,MRED as Distributed by MLS Grid,11924532,N,Y,41.9507275,-87.6775104
MLS Listing,,Condo/Co-op,6171 N Sheridan Rd #509,Chicago,IL,60660,169900,1,1.0,CHI - Edgewater,790,,1971,1,215,544,Active,,,https://www.redfin.com/IL/Chicago/6171-N-Sheridan-Rd-60660/unit-509/home/13413139,MRED as Distributed by MLS Grid,11929037,N,Y,41.9944051,-87.6549099
MLS Listing,,Multi-Family (2-4 Unit),3242 W 38th Pl,Chicago,IL,60632,429000,8,4.0,CHI - Brighton Park,,3125,1890,1,,,Active,,,https://www.redfin.com/IL/Chicago/3242-W-38th-Pl-60632/home/14128002,MRED as Distributed by MLS Grid,11929212,N,Y,41.8237124,-87.7062028
MLS Listing,,Condo/Co-op,1120 N Lake Shore Dr Unit 16C,Chicago,IL,60611,449999,2,2.0,CHI - Near North Side,1435,,1926,1,314,2815,Active,,,https://www.redfin.com/IL/Chicago/1120-N-Lake-Shore-Dr-60611/unit-16C/home/180006557,MRED as Distributed by MLS Grid,11929215,N,Y,41.9030623,-87.6250979
MLS Listing,,Multi-Family (2-4 Unit),8209 S Marshfield Ave,Chicago,IL,60620,399900,11,3.0,CHI - Auburn Gresham,,21780,1924,1,,,Active,,,https://www.redfin.com/IL/Chicago/8209-S-Marshfield-Ave-60620/home/13907402,MRED as Distributed by MLS Grid,11926658,N,Y,41.744567,-87.664154
MLS Listing,,Single Family Residential,9103 S Normal Ave,Chicago,IL,60620,269000,4,2.0,CHI - Washington Heights,2000,3125,1962,1,135,,Active,,,https://www.redfin.com/IL/Chicago/9103-S-Normal-Ave-60620/home/22602605,MRED as Distributed by MLS Grid,11928735,N,Y,41.7286833,-87.635845
MLS Listing,,Single Family Residential,1034 N Ridgeway Ave,Chicago,IL,60651,320000,3,1.0,CHI - Humboldt Park,1050,,1880,2,305,,Active,,,https://www.redfin.com/IL/Chicago/1034-N-Ridgeway-Ave-60651/home/13285022,MRED as Distributed by MLS Grid,11928983,N,Y,41.9001389,-87.7204355
MLS Listing,,Single Family Residential,12857 S Aberdeen St,Calumet Park,IL,60827,97800,3,2.5,Calumet Park,1132,4312,1966,2,86,,Active,,,https://www.redfin.com/IL/Calumet-Park/12857-S-Aberdeen-St-60827/home/13047388,MRED as Distributed by MLS Grid,11929191,N,Y,41.6597044,-87.6483823
MLS Listing,,Condo/Co-op,6935 W 64th Pl Unit 2A,Chicago,IL,60638,159900,2,1.0,CHI - Clearing,1000,15960,1963,2,160,362,Active,,,https://www.redfin.com/IL/Chicago/6935-W-64th-Pl-60638/unit-A2/home/13997932,MRED as Distributed by MLS Grid,11929178,N,Y,41.7744665,-87.7946214
MLS Listing,,Single Family Residential,3807 W 63rd St,Chicago,IL,60629,208000,4,3.0,CHI - West Lawn,1540,3101,1910,2,135,,Active,,,https://www.redfin.com/IL/Chicago/3807-W-63rd-St-60629/home/13991656,MRED as Distributed by MLS Grid,11929171,N,Y,41.7785082,-87.7182346
MLS Listing,,Single Family Residential,9754 S Green St,Chicago,IL,60643,170000,3,1.0,CHI - Washington Heights,1170,3571,1947,2,145,,Active,,,https://www.redfin.com/IL/Chicago/9754-S-Green-St-60643/home/13097262,MRED as Distributed by MLS Grid,11928852,N,Y,41.7160442,-87.6445625
MLS Listing,,Single Family Residential,3303 W 51 St,Chicago,IL,60632,229900,3,1.0,CHI - Gage Park,1040,,1961,2,221,,Active,,,https://www.redfin.com/IL/Chicago/3303-W-51st-St-60632/home/14019076,MRED as Distributed by MLS Grid,11929107,N,Y,41.8005665,-87.7065216
MLS Listing,,Single Family Residential,8410 S Carpenter St,Chicago,IL,60620,80000,3,1.0,CHI - Auburn Gresham,1382,,1925,2,58,,Active,,,https://www.redfin.com/IL/Chicago/8410-S-Carpenter-St-60620/home/13228881,MRED as Distributed by MLS Grid,11929144,N,Y,41.7410414,-87.6501884
MLS Listing,,Single Family Residential,9858 S Van Vlissingen Rd,Chicago,IL,60617,75000,3,1.0,CHI - South Deering,1134,,1956,2,66,,Active,,,https://www.redfin.com/IL/Chicago/9858-S-Van-Vlissingen-Rd-60617/home/13085165,MRED as Distributed by MLS Grid,11928817,N,Y,41.7155651,-87.5747474
MLS Listing,,Single Family Residential,3116 W Columbus Ave,Chicago,IL,60652,149000,3,2.5,CHI - Ashburn,1120,,1971,2,133,,Active,,,https://www.redfin.com/IL/Chicago/3116-W-Columbus-Ave-60652/home/13983450,MRED as Distributed by MLS Grid,11929141,N,Y,41.7515417,-87.7007306
MLS Listing,,Single Family Residential,3101 N Natchez Ave,Chicago,IL,60634,375000,3,1.0,CHI - Belmont Cragin,1000,3750,1915,2,375,,Active,,,https://www.redfin.com/IL/Chicago/3101-N-Natchez-Ave-60634/home/13433160,MRED as Distributed by MLS Grid,11919072,N,Y,41.9365991,-87.7880431
MLS Listing,,Single Family Residential,7312 S Damen Ave,Chicago,IL,60636,260000,5,2.0,CHI - West Englewood,1900,3125,1963,2,137,,Active,,,https://www.redfin.com/IL/Chicago/7312-S-Damen-Ave-60636/home/13912065,MRED as Distributed by MLS Grid,11920835,N,Y,41.7607022,-87.6737259
MLS Listing,,Condo/Co-op,5461 S Ingleside Ave Unit 3W,Chicago,IL,60615,149500,1,1.0,CHI - Hyde Park,800,,1938,2,187,247,Active,,,https://www.redfin.com/IL/Chicago/5461-S-Ingleside-Ave-60615/unit-3W/home/13949755,MRED as Distributed by MLS Grid,11929114,N,Y,41.796117,-87.602314
MLS Listing,,Single Family Residential,4444 S Berkeley Ave,Chicago,IL,60653,469000,4,3.0,Bronzeville,2800,1750,1890,2,168,,Active,,,https://www.redfin.com/IL/Chicago/4444-S-Berkeley-Ave-60653/home/179520017,MRED as Distributed by MLS Grid,11929072,N,Y,41.8139196,-87.6009126
MLS Listing,,Single Family Residential,2442 W 108th St,Chicago,IL,60655,340000,3,2.0,CHI - Morgan Park,1464,,1926,2,232,,Active,,,https://www.redfin.com/IL/Chicago/2442-W-108th-St-60655/home/13158105,MRED as Distributed by MLS Grid,11926659,N,Y,41.6974335,-87.6831142
MLS Listing,,Single Family Residential,12015 S Wentworth Ave,Chicago,IL,60628,158900,3,1.0,CHI - West Pullman,1100,,1924,2,144,,Active,,,https://www.redfin.com/IL/Chicago/12015-S-Wentworth-Ave-60628/home/13057884,MRED as Distributed by MLS Grid,11924517,N,Y,41.6756548,-87.6271411
MLS Listing,,Condo/Co-op,2100 N Lincoln Park West Unit 3D-N,Chicago,IL,60614,635000,2,2.0,CHI - Lincoln Park,1350,,1919,2,470,1413,Active,,,https://www.redfin.com/IL/Chicago/2100-N-Lincoln-Park-W-60614/unit-3DN/home/185518804,MRED as Distributed by MLS Grid,11927016,N,Y,41.9204815,-87.6367253
MLS Listing,,Single Family Residential,4709 W 19th St,Cicero,IL,60804,280000,3,2.0,Cicero,578,2824,1941,2,484,,Active,,,https://www.redfin.com/IL/Cicero/4709-W-19th-St-60804/home/13236126,MRED as Distributed by MLS Grid,11929110,N,Y,41.8547858,-87.7424803
MLS Listing,,Single Family Residential,3441 N Springfield Ave,Chicago,IL,60618,899999,5,4.0,CHI - Avondale,3400,3125,2018,2,265,,Active,,,https://www.redfin.com/IL/Chicago/3441-N-Springfield-Ave-60618/home/13454999,MRED as Distributed by MLS Grid,11929093,N,Y,41.9439943,-87.7246052
MLS Listing,,Condo/Co-op,8 W Monroe St #1403,Chicago,IL,60603,320000,2,2.0,Metropolis Condominiums,990,,1912,2,323,656,Active,,,https://www.redfin.com/IL/Chicago/8-W-Monroe-St-60603/unit-1403/home/39568510,MRED as Distributed by MLS Grid,11928705,N,Y,41.8808597,-87.6283136
MLS Listing,,Multi-Family (2-4 Unit),1640 N Talman Ave,Chicago,IL,60647,1499888,8,8.0,CHI - West Town,,3125,1897,2,,,Active,,,https://www.redfin.com/IL/Chicago/1640-N-Talman-Ave-60647/home/13414430,MRED as Distributed by MLS Grid,11928886,N,Y,41.9115224,-87.6937157
MLS Listing,,Single Family Residential,4957 N Keystone Ave,Chicago,IL,60630,659900,5,3.0,CHI - Albany Park,1454,9243,1919,2,454,,Active,,,https://www.redfin.com/IL/Chicago/4957-N-Keystone-Ave-60630/home/13494600,MRED as Distributed by MLS Grid,11929075,N,Y,41.9717306,-87.7290552
MLS Listing,,Condo/Co-op,3900 N Pine Grove Ave #907,Chicago,IL,60613,235000,1,1.0,CHI - Lake View,,,1976,2,,537,Active,,,https://www.redfin.com/IL/Chicago/3900-N-Pine-Grove-Ave-60613/unit-907/home/12597238,MRED as Distributed by MLS Grid,11927282,N,Y,41.9531669,-87.6482047
MLS Listing,,Condo/Co-op,1134 W Granville Ave #506,Chicago,IL,60660,339000,2,2.0,CHI - Edgewater,1200,,2007,2,283,491,Active,,,https://www.redfin.com/IL/Chicago/1134-W-Granville-Ave-60660/unit-506/home/144511030,MRED as Distributed by MLS Grid,11928897,N,Y,41.9947425,-87.6597943
MLS Listing,,Single Family Residential,8841 S Throop St,Chicago,IL,60620,339900,5,3.0,CHI - Auburn Gresham,2500,3149,1925,2,136,,Active,,,https://www.redfin.com/IL/Chicago/8841-S-Throop-St-60620/home/185222454,MRED as Distributed by MLS Grid,11929055,N,Y,41.7328024,-87.6553789
MLS Listing,,Condo/Co-op,5816 N Nagle Ave Unit C,Chicago,IL,60646,160000,1,1.0,CHI - Norwood Park,,,1968,2,,220,Active,,,https://www.redfin.com/IL/Chicago/5816-N-Nagle-Ave-60646/unit-C/home/12666407,MRED as Distributed by MLS Grid,11927213,N,Y,41.9867038,-87.7879817
MLS Listing,,Single Family Residential,345 W Garfield Blvd,Chicago,IL,60621,239500,3,1.0,CHI - Englewood,1800,4064,1963,2,133,,Active,,,https://www.redfin.com/IL/Chicago/345-W-Garfield-Blvd-60621/home/13943286,MRED as Distributed by MLS Grid,11927108,N,Y,41.7938663,-87.6349292
MLS Listing,,Multi-Family (2-4 Unit),4952 W Patterson Ave,Chicago,IL,60641,549900,4,3.0,CHI - Portage Park,,3875,1925,2,,,Active,,,https://www.redfin.com/IL/Chicago/4952-W-Patterson-Ave-60641/home/13461535,MRED as Distributed by MLS Grid,11928155,N,Y,41.9472048,-87.7517102
MLS Listing,,Multi-Family (2-4 Unit),7750 S Ridgeland Ave,Chicago,IL,60649,445999,9,3.0,CHI - South Shore,,,1926,2,,,Active,,,https://www.redfin.com/IL/Chicago/7750-S-Ridgeland-Ave-60649/home/13923882,MRED as Distributed by MLS Grid,11926152,N,Y,41.7536473,-87.5824694
MLS Listing,,Single Family Residential,9936 S Peoria St,Chicago,IL,60643,250000,3,3.0,CHI - Washington Heights,1592,3125,1949,2,157,,Active,,,https://www.redfin.com/IL/Chicago/9936-S-Peoria-St-60643/home/13095159,MRED as Distributed by MLS Grid,11929020,N,Y,41.7130447,-87.6457098
MLS Listing,,Single Family Residential,3723 W 55th St,Chicago,IL,60632,330000,6,2.5,CHI - West Elsdon,1923,5000,1900,2,172,,Active,,,https://www.redfin.com/IL/Chicago/3723-W-55th-St-60632/home/14012532,MRED as Distributed by MLS Grid,11929016,N,Y,41.7930751,-87.7167806
MLS Listing,,Multi-Family (2-4 Unit),5746 N Western Ave,Chicago,IL,60659,729900,4,2.5,CHI - West Ridge,,5450,1931,2,,,Active,,,https://www.redfin.com/IL/Chicago/5746-N-Western-Ave-60659/home/13518576,MRED as Distributed by MLS Grid,11929011,N,Y,41.9863503,-87.6898665
MLS Listing,,Single Family Residential,7504 W Jonquil Ter,Niles,IL,60714,370000,2,2.0,Niles,1040,6733,1955,2,356,,Active,,,https://www.redfin.com/IL/Niles/7504-W-Jonquil-Ter-60714/home/13652503,MRED as Distributed by MLS Grid,11925959,N,Y,42.0208214,-87.8141263
MLS Listing,,Single Family Residential,2450 E 91st St,Chicago,IL,60617,205000,3,1.5,CHI - Calumet Heights,1107,2625,1964,2,185,,Active,,,https://www.redfin.com/IL/Chicago/2450-E-91st-St-60617/home/13045104,MRED as Distributed by MLS Grid,11928997,N,Y,41.7301661,-87.5637933
MLS Listing,,Single Family Residential,3935 W 85th St,Chicago,IL,60652,239900,4,1.0,CHI - Ashburn,990,,1952,2,242,,Active,,,https://www.redfin.com/IL/Chicago/3935-W-85th-St-60652/home/13966252,MRED as Distributed by MLS Grid,11921404,N,Y,41.7383335,-87.7205327
MLS Listing,,Single Family Residential,6649 S Kenneth Ave,Chicago,IL,60629,319900,6,2.0,CHI - West Lawn,2128,3746,1956,2,150,,Active,,,https://www.redfin.com/IL/Chicago/6649-S-Kenneth-Ave-60629/home/13993828,MRED as Distributed by MLS Grid,11928999,N,Y,41.7716252,-87.7333001
MLS Listing,,Condo/Co-op,5415 N Sheridan Rd #2705,Chicago,IL,60640,192000,1,1.0,CHI - Edgewater,800,,1974,2,240,737,Active,,,https://www.redfin.com/IL/Chicago/5415-N-Sheridan-Rd-60640/unit-2705/home/13401532,MRED as Distributed by MLS Grid,11927663,N,Y,41.9801211,-87.6543366
MLS Listing,,Single Family Residential,7017 S Eggleston Ave,Chicago,IL,60621,205000,4,2.0,CHI - Englewood,1700,3125,,2,121,,Active,,,https://www.redfin.com/IL/Chicago/7017-S-Eggleston-Ave-60621/home/13930702,MRED as Distributed by MLS Grid,11928985,N,Y,41.7666208,-87.6357004
MLS Listing,,Single Family Residential,707 E 90th St,Chicago,IL,60619,224000,5,2.0,CHI - Chatham,1860,3125,,2,120,,Active,,,https://www.redfin.com/IL/Chicago/707-E-90th-St-60619/home/21766534,MRED as Distributed by MLS Grid,11928961,N,Y,41.7309424,-87.6067946
MLS Listing,,Condo/Co-op,7337 S South Shore Dr #406,Chicago,IL,60649,62000,1,1.0,CHI - South Shore,700,,1964,2,89,540,Active,,,https://www.redfin.com/IL/Chicago/7337-S-South-Shore-Dr-60649/unit-406/home/13218245,MRED as Distributed by MLS Grid,11925328,N,Y,41.7633184,-87.5583573
MLS Listing,,Condo/Co-op,30 E Elm St Unit 11A,Chicago,IL,60610,250000,1,1.0,CHI - Near North Side,,,1960,2,,653,Active,,,https://www.redfin.com/IL/Chicago/30-E-Elm-St-60611/unit-11A/home/14122984,MRED as Distributed by MLS Grid,11928269,N,Y,41.9033419,-87.6274881
MLS Listing,,Condo/Co-op,195 N Harbor Dr #2609,Chicago,IL,60601,450000,2,2.0,CHI - Loop,1140,,1991,2,395,,Active,,,https://www.redfin.com/IL/Chicago/195-N-Harbor-Dr-60601/unit-2609/home/14094367,MRED as Distributed by MLS Grid,11927759,N,Y,41.8856515,-87.6149036
MLS Listing,,Single Family Residential,9107 S Racine Ave,Chicago,IL,60620,229900,3,2.0,CHI - Washington Heights,1884,3689,1931,2,122,,Active,November-19-2023 10:00 AM,November-19-2023 12:00 PM,https://www.redfin.com/IL/Chicago/9107-S-Racine-Ave-60620/home/13102459,MRED as Distributed by MLS Grid,11928946,N,Y,41.7283539,-87.6528384
MLS Listing,,Single Family Residential,9035 S Drexel Ave,Chicago,IL,60619,150000,4,1.0,CHI - Burnside,1186,3101,1952,2,126,,Active,,,https://www.redfin.com/IL/Chicago/9035-S-Drexel-Ave-60619/home/13115339,MRED as Distributed by MLS Grid,11923397,N,Y,41.7301559,-87.6007298
MLS Listing,,Multi-Family (2-4 Unit),1442 N North Park Ave,Chicago,IL,60610,1960000,6,6.0,CHI - Near North Side,,2550,1998,2,,,Active,,,https://www.redfin.com/IL/Chicago/1442-N-North-Park-Ave-60610/home/14117500,MRED as Distributed by MLS Grid,11928445,N,Y,41.9088586,-87.636947
MLS Listing,,Single Family Residential,6136 N Avondale Ave,Chicago,IL,60631,349000,4,4.0,CHI - Norwood Park,2400,11674,1893,2,145,,Active,,,https://www.redfin.com/IL/Chicago/6136-N-Avondale-Ave-60631/home/13508385,MRED as Distributed by MLS Grid,11928936,N,Y,41.9930844,-87.8025676
MLS Listing,,Single Family Residential,7717 S Bennett Ave,Chicago,IL,60649,340000,4,2.0,Southshore,2768,3125,1922,2,123,,Active,,,https://www.redfin.com/IL/Chicago/7717-S-Bennett-Ave-60649/home/13923781,MRED as Distributed by MLS Grid,11926870,N,Y,41.7547039,-87.5782216
MLS Listing,,Single Family Residential,2924 W Belden Ave,Chicago,IL,60647,380000,3,2.0,CHI - Logan Square,,10890,,2,,,Active,,,https://www.redfin.com/IL/Chicago/2924-W-Belden-Ave-60647/home/13418457,MRED as Distributed by MLS Grid,11852168,N,Y,41.9235281,-87.7009856
MLS Listing,,Single Family Residential,9040 S Loomis St,Chicago,IL,60620,344900,4,2.5,CHI - Washington Heights,2407,6651,1910,2,143,,Active,,,https://www.redfin.com/IL/Chicago/9040-S-Loomis-St-60620/home/13105508,MRED as Distributed by MLS Grid,11928931,N,Y,41.729151,-87.658378
MLS Listing,,Condo/Co-op,6131 W 64th Pl Unit F3,Chicago,IL,60638,189900,2,1.0,CHI - Clearing,800,,1972,2,237,200,Active,,,https://www.redfin.com/IL/Chicago/6131-W-64th-Pl-60638/unit-F3/home/12711202,MRED as Distributed by MLS Grid,11927739,N,Y,41.7746163,-87.7751037
MLS Listing,,Condo/Co-op,3560 W Palmer St Unit GB,Chicago,IL,60647,180000,1,1.0,CHI - Logan Square,,,1929,3,,371,Active,,,https://www.redfin.com/IL/Chicago/3560-W-Palmer-St-60647/unit-GB/home/18929120,MRED as Distributed by MLS Grid,11927029,N,Y,41.9212341,-87.7160557
MLS Listing,,Single Family Residential,7731 S Avalon Ave,Chicago,IL,60619,139900,5,2.0,CHI - Avalon Park,1000,3125,1971,3,140,,Active,,,https://www.redfin.com/IL/Chicago/7731-S-Avalon-Ave-60619/home/13919906,MRED as Distributed by MLS Grid,11928918,N,Y,41.7541134,-87.5940569
MLS Listing,,Townhouse,335 W 42nd St,Chicago,IL,60609,215000,3,1.0,CHI - Fuller Park,1134,,1964,3,190,,Active,,,https://www.redfin.com/IL/Chicago/335-W-42nd-St-60609/home/12783721,MRED as Distributed by MLS Grid,11928920,N,Y,41.8179739,-87.6350189
MLS Listing,,Single Family Residential,2111 W 54th Pl,Chicago,IL,60609,74000,3,2.0,CHI - New City,1200,,1915,3,62,,Active,,,https://www.redfin.com/IL/Chicago/2111-W-54th-Pl-60609/home/13956130,MRED as Distributed by MLS Grid,11928916,N,Y,41.7946347,-87.67726
MLS Listing,,Single Family Residential,4006 N Oketo Ave,Norridge,IL,60706,347700,3,1.0,Norridge,1200,3750,1926,3,290,,Active,,,https://www.redfin.com/IL/Norridge/4006-N-Oketo-Ave-60706/home/13552495,MRED as Distributed by MLS Grid,11928894,N,Y,41.9531669,-87.8124939
MLS Listing,,Single Family Residential,11441 S Fairfield Ave,Chicago,IL,60655,179900,3,2.0,CHI - Morgan Park,1091,3920,1948,3,165,,Active,,,https://www.redfin.com/IL/Chicago/11441-S-Fairfield-Ave-60655/home/13133247,MRED as Distributed by MLS Grid,11928463,N,Y,41.685016,-87.689187
MLS Listing,,Multi-Family (2-4 Unit),3033 W 5th Ave,Chicago,IL,60612,225000,8,4.0,CHI - East Garfield Park,,310726,1893,3,,,Active,,,https://www.redfin.com/IL/Chicago/3033-W-5th-Ave-60612/home/13258916,MRED as Distributed by MLS Grid,11928898,N,Y,41.8791842,-87.7023662
MLS Listing,,Vacant Land,9132 S Ashland Ave S,Chicago,IL,60620,325000,,,CHI - Washington Heights,,2613,,3,,,Active,,,https://www.redfin.com/IL/Chicago/9132-S-Ashland-Ave-60620/home/188540643,MRED as Distributed by MLS Grid,11924503,N,Y,41.7274995,-87.6631603
MLS Listing,,Single Family Residential,1816 W Race Ave,Chicago,IL,60622,825000,4,3.5,CHI - West Town,2300,2160,1998,3,359,,Active,,,https://www.redfin.com/IL/Chicago/1816-W-Race-Ave-60622/home/14105074,MRED as Distributed by MLS Grid,11928168,N,Y,41.891817,-87.6727428
MLS Listing,,Condo/Co-op,5312 S Kenneth Ave S #2,Chicago,IL,60632,169900,2,2.0,CHI - West Elsdon,1200,,2007,3,142,,Active,,,https://www.redfin.com/IL/Chicago/5312-S-Kenneth-Ave-60632/unit-2/home/21866048,MRED as Distributed by MLS Grid,11924427,N,Y,41.7962598,-87.7345181
MLS Listing,,Condo/Co-op,3207 N Nottingham Ave Unit 1C,Chicago,IL,60634,249900,2,2.0,CHI - Dunning,1800,,1978,3,139,298,Active,,,https://www.redfin.com/IL/Chicago/3207-N-Nottingham-Ave-60634/unit-1C/home/187526689,MRED as Distributed by MLS Grid,11928877,N,Y,41.9382809,-87.804035
MLS Listing,,Single Family Residential,415 W Roslyn Pl,Chicago,IL,60614,1295000,4,4.0,CHI - Lincoln Park,2800,1280,1880,3,463,,Active,,,https://www.redfin.com/IL/Chicago/415-W-Roslyn-Pl-60614/home/13365671,MRED as Distributed by MLS Grid,11913085,N,Y,41.9278067,-87.6396711
MLS Listing,,Condo/Co-op,1560 N Sandburg Ter Unit 501J,Chicago,IL,60610,499500,2,2.0,CHI - Near North Side,1250,,1970,3,400,1115,Active,,,https://www.redfin.com/IL/Chicago/1560-N-Sandburg-Ter-60610/unit-501J/home/14116071,MRED as Distributed by MLS Grid,11926316,N,Y,41.91056,-87.6327891
MLS Listing,,Multi-Family (2-4 Unit),1709 N Troy St,Chicago,IL,60647,799000,10,4.0,CHI - Humboldt Park,,2613,,3,,,Active,,,https://www.redfin.com/IL/Chicago/1709-N-Troy-St-60647/home/183988748,MRED as Distributed by MLS Grid,11927423,N,Y,41.9122886,-87.7054897
MLS Listing,,Multi-Family (2-4 Unit),7817 S Honore St,Chicago,IL,60620,329900,5,2.5,CHI - Auburn Gresham,,3920,1926,3,,,Active,,,https://www.redfin.com/IL/Chicago/7817-S-Honore-St-60620/home/182276861,MRED as Distributed by MLS Grid,11928833,N,Y,41.7515326,-87.6692602
MLS Listing,,Single Family Residential,1320 S 57th Ave,Cicero,IL,60804,229000,3,1.0,Cicero,1400,3000,,3,164,,Active,,,https://www.redfin.com/IL/Cicero/1320-S-57th-Ave-60804/home/13241797,MRED as Distributed by MLS Grid,11928861,N,Y,41.8629212,-87.7669475
MLS Listing,,Single Family Residential,9151 S Harper Ave,Chicago,IL,60619,249900,5,2.0,CHI - Calumet Heights,1660,,1927,3,151,,Active,,,https://www.redfin.com/IL/Chicago/9151-S-Harper-Ave-60619/home/13114307,MRED as Distributed by MLS Grid,11928336,N,Y,41.7280589,-87.5864814
MLS Listing,,Multi-Family (2-4 Unit),4128 W Cornelia Ave,Chicago,IL,60641,549900,6,2.0,CHI - Irving Park,,,1911,3,,,Active,,,https://www.redfin.com/IL/Chicago/4128-W-Cornelia-Ave-60641/home/188539136,MRED as Distributed by MLS Grid,11925095,N,Y,41.9450048,-87.7303633
MLS Listing,,Single Family Residential,3727 S Lowe Ave,Chicago,IL,60609,490000,3,3.5,CHI - Bridgeport,2000,3125,1890,3,245,,Active,,,https://www.redfin.com/IL/Chicago/3727-S-Lowe-Ave-60609/home/188539078,MRED as Distributed by MLS Grid,11923644,N,Y,41.8263104,-87.6418684
MLS Listing,,Single Family Residential,11812 S Emerald Ave,Chicago,IL,60628,105000,2,1.0,CHI - West Pullman,826,3125,1917,3,127,,Active,,,https://www.redfin.com/IL/Chicago/11812-S-Emerald-Ave-60628/home/13062475,MRED as Distributed by MLS Grid,11927113,N,Y,41.6792472,-87.6410203
MLS Listing,,Condo/Co-op,6301 N Sheridan Rd Unit 15N,Chicago,IL,60660,125000,1,1.0,Shoreline Towers,,,1965,3,,824,Active,,,https://www.redfin.com/IL/Chicago/6301-N-Sheridan-Rd-60660/unit-15N/home/13412186,MRED as Distributed by MLS Grid,11923422,N,Y,41.9967345,-87.6550688
MLS Listing,,Multi-Family (2-4 Unit),1737 W 71st St,Chicago,IL,60636,165300,5,4.0,CHI - West Englewood,,5625,1928,3,,,Active,,,https://www.redfin.com/IL/Chicago/1737-W-71st-St-60636/home/185461461,MRED as Distributed by MLS Grid,11925001,N,Y,41.7646695,-87.6676875
MLS Listing,,Condo/Co-op,4900 N Lester Ave #4,Chicago,IL,60630,225000,2,1.0,CHI - Jefferson Park,1000,,1984,3,225,231,Active,,,https://www.redfin.com/IL/Chicago/4900-N-Lester-Ave-60630/unit-4/home/13497481,MRED as Distributed by MLS Grid,11928461,N,Y,41.9701427,-87.7647333
MLS Listing,,Multi-Family (2-4 Unit),4223 W Monroe St,Chicago,IL,60624,189900,6,2.0,CHI - West Garfield Park,,4477,1891,3,,,Active,,,https://www.redfin.com/IL/Chicago/4223-W-Monroe-St-60624/home/188538863,MRED as Distributed by MLS Grid,11928766,N,Y,41.8795256,-87.7315366
MLS Listing,,Single Family Residential,8217 S Rhodes Ave,Chicago,IL,60619,137900,4,2.5,CHI - Chatham,2230,,1927,3,62,,Active,,,https://www.redfin.com/IL/Chicago/8217-S-Rhodes-Ave-60619/home/13225229,MRED as Distributed by MLS Grid,11928379,N,Y,41.7451375,-87.6108469
MLS Listing,,Multi-Family (2-4 Unit),4151 W Arthington St,Chicago,IL,60624,124900,4,2.0,CHI - West Garfield Park,,4290,1913,3,,,Active,,,https://www.redfin.com/IL/Chicago/4151-W-Arthington-St-60624/home/188538841,MRED as Distributed by MLS Grid,11928771,N,Y,41.8697814,-87.7297668
MLS Listing,,Condo/Co-op,320 E 21st St #602,Chicago,IL,60616,259999,1,1.0,Chess Lofts,858,,2007,3,303,460,Active,,,https://www.redfin.com/IL/Chicago/320-E-21st-St-60616/unit-602/home/45515155,MRED as Distributed by MLS Grid,11928779,N,Y,41.8546184,-87.6195225
MLS Listing,,Single Family Residential,5753 W 63rd Pl,Chicago,IL,60638,325000,3,2.0,CHI - Clearing,1068,10890,1960,3,304,,Active,,,https://www.redfin.com/IL/Chicago/5753-W-63rd-Pl-60638/home/13995521,MRED as Distributed by MLS Grid,11928549,N,Y,41.7768373,-87.7661666
MLS Listing,,Single Family Residential,1053 N Saint Louis Ave,Chicago,IL,60651,450000,4,2.0,CHI - Humboldt Park,3750,3750,1924,3,120,,Active,,,https://www.redfin.com/IL/Chicago/1053-N-Saint-Louis-Ave-60651/home/13284533,MRED as Distributed by MLS Grid,11928780,N,Y,41.9006759,-87.7137797
MLS Listing,,Single Family Residential,4329 S Keeler Ave,Chicago,IL,60632,420000,6,3.0,CHI - Archer Heights,,3750,1960,3,,,Active,,,https://www.redfin.com/IL/Chicago/4329-S-Keeler-Ave-60632/home/14032772,MRED as Distributed by MLS Grid,11928775,N,Y,41.814178,-87.728355
MLS Listing,,Townhouse,3633 S Calumet Ave,Chicago,IL,60653,360000,3,2.0,CHI - Douglas,1666,1280,1890,3,216,,Active,,,https://www.redfin.com/IL/Chicago/3633-S-Calumet-Ave-60653/home/14071622,MRED as Distributed by MLS Grid,11927331,N,Y,41.8282845,-87.6181657
MLS Listing,,Vacant Land,7222-7226 N Oakley Ave,Chicago,IL,60645,835000,,,CHI - West Ridge,,10454,,3,,,Active,,,https://www.redfin.com/IL/Chicago/7222-N-Oakley-Ave-60645/home/21877865,MRED as Distributed by MLS Grid,11927767,N,Y,42.0129466,-87.6879051
MLS Listing,,Single Family Residential,5025 N Natchez Ave,Chicago,IL,60656,525000,5,2.0,CHI - Norwood Park,2200,,1959,3,239,,Active,,,https://www.redfin.com/IL/Chicago/5025-N-Natchez-Ave-60656/home/13503646,MRED as Distributed by MLS Grid,11928660,N,Y,41.972786,-87.7888423
MLS Listing,,Multi-Family (5+ Unit),944 N Damen Ave,Chicago,IL,60622,1200000,42,21.0,CHI - West Town,,2592,1916,3,,,Active,,,https://www.redfin.com/IL/Chicago/944-N-Damen-Ave-60622/home/14106157,MRED as Distributed by MLS Grid,11928755,N,Y,41.8990606,-87.6774622
MLS Listing,,Townhouse,713 E 105th Pl,Chicago,IL,60628,174000,3,1.0,,832,,1939,3,209,,Active,,,https://www.redfin.com/IL/Chicago/Undisclosed-address-60628/home/13079726,MRED as Distributed by MLS Grid,11928238,N,Y,41.7026791,-87.6057356
MLS Listing,,Single Family Residential,8816 S Loomis St,Chicago,IL,60620,324000,4,3.0,CHI - Auburn Gresham,2093,5775,1925,3,155,,Active,,,https://www.redfin.com/IL/Chicago/8816-S-Loomis-St-60620/home/13104546,MRED as Distributed by MLS Grid,11926330,N,Y,41.7334394,-87.6584313
MLS Listing,,Condo/Co-op,630 N Franklin St #920,Chicago,IL,60654,199000,0,1.0,CHI - Near North Side,600,,2005,3,332,334,Active,,,https://www.redfin.com/IL/Chicago/630-N-Franklin-St-60654/unit-920/home/12621066,MRED as Distributed by MLS Grid,11928744,N,Y,41.8933627,-87.6357705
MLS Listing,,Multi-Family (2-4 Unit),6037 S Racine Ave,Chicago,IL,60636,129000,4,2.0,CHI - Englewood,,3049,1890,3,,,Active,,,https://www.redfin.com/IL/Chicago/6037-S-Racine-Ave-60636/home/185447273,MRED as Distributed by MLS Grid,11928747,N,Y,41.7839123,-87.6543472
MLS Listing,,Condo/Co-op,1000 N Lake Shore Plz Unit 15B,Chicago,IL,60611,749999,2,2.5,CHI - Near North Side,2100,,1964,3,357,2507,Active,,,https://www.redfin.com/IL/Chicago/1000-N-Lake-Shore-Dr-60611/unit-15B/home/14121337,MRED as Distributed by MLS Grid,11928711,N,Y,41.9014753,-87.6246329
MLS Listing,,Single Family Residential,7854 S Hamilton Ave,Chicago,IL,60620,195000,4,1.0,CHI - Auburn Gresham,1120,5005,1955,3,174,,Active,,,https://www.redfin.com/IL/Chicago/7854-S-Hamilton-Ave-60620/home/13910907,MRED as Distributed by MLS Grid,11928741,N,Y,41.7509202,-87.6771056
MLS Listing,,Condo/Co-op,3637 N Spaulding Ave #203,Chicago,IL,60618,364900,2,2.0,CHI - Irving Park,1100,,2007,3,332,,Active,,,https://www.redfin.com/IL/Chicago/3637-N-Spaulding-Ave-60618/unit-203/home/26805898,MRED as Distributed by MLS Grid,11928733,N,Y,41.947734,-87.7101141
MLS Listing,,Single Family Residential,1620 N Artesian Ave,Chicago,IL,60647,985000,5,3.5,CHI - West Town,,3049,2009,3,,,Active,,,https://www.redfin.com/IL/Chicago/1620-N-Artesian-Ave-60647/home/21874105,MRED as Distributed by MLS Grid,11928567,N,Y,41.9110681,-87.6886801
MLS Listing,,Condo/Co-op,2017 W Crystal St #2,Chicago,IL,60622,1098000,3,2.5,CHI - West Town,,,2023,3,,225,Active,,,https://www.redfin.com/IL/Chicago/2017-W-Crystal-St-60622/unit-2/home/186895683,MRED as Distributed by MLS Grid,11928729,N,Y,41.9039466,-87.6780881
MLS Listing,,Townhouse,1015 N Cleveland Ave #6,Chicago,IL,60610,769900,3,2.5,CHI - Near North Side,2198,1062,2015,3,350,267,Active,,,https://www.redfin.com/IL/Chicago/1015-N-Cleveland-Ave-60610/unit-6/home/144509987,MRED as Distributed by MLS Grid,11928561,N,Y,41.9008729,-87.6406149
MLS Listing,,Condo/Co-op,1214 N Wood St #101,Chicago,IL,60622,659000,3,2.0,CHI - West Town,2100,,2011,3,314,333,Active,,,https://www.redfin.com/IL/Chicago/1214-N-Wood-St-60622/unit-101/home/35629884,MRED as Distributed by MLS Grid,11928716,N,Y,41.9037507,-87.6726694
MLS Listing,,Single Family Residential,4225 N Narragansett Ave,Chicago,IL,60634,325000,4,2.0,CHI - Portage Park,1000,3990,1950,3,325,,Active,,,https://www.redfin.com/IL/Chicago/4225-N-Narragansett-Ave-60634/home/13476040,MRED as Distributed by MLS Grid,11928703,N,Y,41.9573245,-87.7864208
MLS Listing,,Townhouse,4155 S Lowe Ave,Chicago,IL,60609,425000,3,2.5,CHI - New City,2500,,2007,3,170,,Active,,,https://www.redfin.com/IL/Chicago/4155-S-Lowe-Ave-60609/home/18920217,MRED as Distributed by MLS Grid,11928685,N,Y,41.8187248,-87.6418753
MLS Listing,,Condo/Co-op,655 W Irving Park Rd #2516,Chicago,IL,60613,240000,1,1.0,CHI - Lake View,840,,1973,3,286,699,Active,,,https://www.redfin.com/IL/Chicago/655-W-Irving-Park-Rd-60613/unit-2516/home/12604309,MRED as Distributed by MLS Grid,11928678,N,Y,41.9543734,-87.6469805
MLS Listing,,Single Family Residential,811 Case St,Evanston,IL,60202,365000,3,2.0,Evanston,1296,3484,1918,3,282,,Active,,,https://www.redfin.com/IL/Evanston/811-Case-St-60202/home/13573708,MRED as Distributed by MLS Grid,11928680,N,Y,42.0223863,-87.683362
MLS Listing,,Condo/Co-op,3950 N Lake Shore Dr Unit 1412-C,Chicago,IL,60613,159900,1,1.0,CHI - Lake View,850,,1955,3,188,731,Active,,,https://www.redfin.com/IL/Chicago/3950-N-Lake-Shore-Dr-60613/unit-1412-C/home/188536079,MRED as Distributed by MLS Grid,11928641,N,Y,41.9542313,-87.6458372
MLS Listing,,Multi-Family (2-4 Unit),6046 S Kolmar Ave,Chicago,IL,60629,549900,6,5.0,CHI - West Lawn,,5970,1973,3,,,Active,,,https://www.redfin.com/IL/Chicago/6046-S-Kolmar-Ave-60629/home/14006293,MRED as Distributed by MLS Grid,11927805,N,Y,41.7826091,-87.7366141
MLS Listing,,Condo/Co-op,3200 N Lake Shore Dr #411,Chicago,IL,60657,365000,2,2.0,Harbor House,1250,,1962,3,292,1354,Active,,,https://www.redfin.com/IL/Chicago/3200-N-Lake-Shore-Dr-60657/unit-411/home/13375521,MRED as Distributed by MLS Grid,11928659,N,Y,41.9406485,-87.6399311
MLS Listing,,Single Family Residential,12106 S Indiana Ave,Chicago,IL,60628,50000,3,1.0,CHI - West Pullman,1040,,1963,3,48,,Active,,,https://www.redfin.com/IL/Chicago/12106-S-Indiana-Ave-60628/home/13058942,MRED as Distributed by MLS Grid,11928649,N,Y,41.6741125,-87.618004
MLS Listing,,Condo/Co-op,5516 W Higgins Ave Unit 2SE,Chicago,IL,60630,149000,1,1.0,CHI - Jefferson Park,7500,,1963,3,20,272,Active,,,https://www.redfin.com/IL/Chicago/5516-W-Higgins-Ave-60630/unit-2SE/home/13497806,MRED as Distributed by MLS Grid,11928389,N,Y,41.9700832,-87.7656559
MLS Listing,,Condo/Co-op,57 E Delaware Pl #3802,Chicago,IL,60611,1995000,4,4.0,CHI - Near North Side,3515,,2000,3,568,3460,Active,,,https://www.redfin.com/IL/Chicago/57-E-Delaware-Pl-60611/unit-3802/home/12769411,MRED as Distributed by MLS Grid,11736345,N,Y,41.8989536,-87.6261597
MLS Listing,,Multi-Family (2-4 Unit),5749 S Maplewood Ave,Chicago,IL,60629,395000,5,3.0,CHI - Gage Park,,3920,1918,3,,,Active,,,https://www.redfin.com/IL/Chicago/5749-S-Maplewood-Ave-60629/home/188535392,MRED as Distributed by MLS Grid,11921943,N,Y,41.7887185,-87.6872954
MLS Listing,,Condo/Co-op,7414 N Harlem Ave #1,Chicago,IL,60631,159900,1,1.0,CHI - Edison Park,800,,,3,200,200,Active,,,https://www.redfin.com/IL/Chicago/7414-N-Harlem-Ave-60631/unit-1/home/12660209,MRED as Distributed by MLS Grid,11904134,N,Y,42.0158251,-87.8068836
MLS Listing,,Single Family Residential,11040 S Ave D,Chicago,IL,60617,229900,2,1.5,CHI - East Side,1200,3750,,3,192,,Active,,,https://www.redfin.com/IL/Chicago/11040-S-Avenue-D-60617/home/13034303,MRED as Distributed by MLS Grid,11928617,N,Y,41.6942425,-87.5285158
MLS Listing,,Single Family Residential,8743 S Normal Ave,Chicago,IL,60620,259000,4,2.0,CHI - Auburn Gresham,1800,,1956,3,144,,Active,,,https://www.redfin.com/IL/Chicago/8743-S-Normal-Ave-60620/home/13108021,MRED as Distributed by MLS Grid,11928588,N,Y,41.734672,-87.635919
MLS Listing,,Condo/Co-op,4106 N Narragansett Ave #404,Chicago,IL,60634,235000,2,1.0,CHI - Dunning,1200,,1989,3,196,269,Active,,,https://www.redfin.com/IL/Chicago/4106-N-Narragansett-Ave-60634/unit-404/home/187334460,MRED as Distributed by MLS Grid,11928534,N,Y,41.9547285,-87.7873238
MLS Listing,,Condo/Co-op,671 W Division St Unit A,Chicago,IL,60610,335000,2,1.5,CHI - Near North Side,,,2003,3,,308,Active,,,https://www.redfin.com/IL/Chicago/671-W-Division-St-60610/unit-A/home/12650697,MRED as Distributed by MLS Grid,11891804,N,Y,41.9034541,-87.6461854
MLS Listing,,Townhouse,5326 W 54th St,Chicago,IL,60638,279900,3,2.0,CHI - Garfield Ridge,1200,2400,1965,3,233,,Active,,,https://www.redfin.com/IL/Chicago/5326-W-54th-St-60638/home/14023922,MRED as Distributed by MLS Grid,11927894,N,Y,41.7948388,-87.7561225
MLS Listing,,Condo/Co-op,405 N Wabash Ave #902,Chicago,IL,60611,250000,1,1.0,River Plaza,890,,1977,3,281,631,Active,,,https://www.redfin.com/IL/Chicago/405-N-Wabash-Ave-60611/unit-902/home/14098670,MRED as Distributed by MLS Grid,11927632,N,Y,41.8897222,-87.6257722
MLS Listing,,Single Family Residential,8235 S Whipple St,Chicago,IL,60652,315000,4,2.0,CHI - Ashburn,1200,,1955,3,263,,Active,,,https://www.redfin.com/IL/Chicago/8235-S-Whipple-St-60652/home/13964797,MRED as Distributed by MLS Grid,11928574,N,Y,41.7432962,-87.698261
MLS Listing,,Vacant Land,3050 W Diversey Ave,Chicago,IL,60647,600000,,,CHI - Avondale,,6102,,3,,,Active,,,https://www.redfin.com/IL/Chicago/3050-W-Diversey-Ave-60647/home/188521060,MRED as Distributed by MLS Grid,11928472,N,Y,41.932294,-87.704675
MLS Listing,,Multi-Family (2-4 Unit),1617 S Central Park Ave,Chicago,IL,60623,300000,10,3.0,CHI - North Lawndale,,3237,1894,3,,,Active,,,https://www.redfin.com/IL/Chicago/1617-S-Central-Park-Ave-60623/home/13232590,MRED as Distributed by MLS Grid,11928251,N,Y,41.8584321,-87.7149607
MLS Listing,,Single Family Residential,8918 S Normal Ave,Chicago,IL,60620,415000,5,3.5,CHI - Auburn Gresham,2300,4199,1943,3,180,,Active,,,https://www.redfin.com/IL/Chicago/8918-S-Normal-Ave-60620/home/13109378,MRED as Distributed by MLS Grid,11926662,N,Y,41.7320201,-87.636504
MLS Listing,,Condo/Co-op,5300 S South Shore Dr #36,Chicago,IL,60615,110000,1,1.0,Hampton House,684,,1922,3,161,703,Active,,,https://www.redfin.com/IL/Chicago/5300-S-Shore-Dr-60615/unit-36/home/12711274,MRED as Distributed by MLS Grid,11926832,N,Y,41.7993832,-87.5829545
MLS Listing,,Single Family Residential,11470 S Church St,Chicago,IL,60643,209000,4,1.5,CHI - Morgan Park,1100,3125,,3,190,,Active,,,https://www.redfin.com/IL/Chicago/11470-S-Church-St-60643/home/13068997,MRED as Distributed by MLS Grid,11927379,N,Y,41.6853188,-87.6691989
MLS Listing,,Multi-Family (2-4 Unit),3846 N Troy St,Chicago,IL,60618,475000,4,2.0,CHI - Irving Park,,4375,1903,3,,,Active,,,https://www.redfin.com/IL/Chicago/3846-N-Troy-St-60618/home/13454249,MRED as Distributed by MLS Grid,11925807,N,Y,41.951674,-87.7070213
MLS Listing,,Single Family Residential,7530 S Vernon Ave,Chicago,IL,60619,295000,4,2.0,CHI - Greater Grand Crossing,1000,,1915,3,295,,Active,,,https://www.redfin.com/IL/Chicago/7530-S-Vernon-Ave-60619/home/13919331,MRED as Distributed by MLS Grid,11928548,N,Y,41.7575101,-87.614029
MLS Listing,,Condo/Co-op,2300 W Bloomingdale Ave Unit C,Chicago,IL,60647,489000,3,2.0,CHI - Logan Square,,,1998,3,,372,Active,,,https://www.redfin.com/IL/Chicago/2300-W-Bloomingdale-Ave-60647/unit-C/home/12771867,MRED as Distributed by MLS Grid,11927526,N,Y,41.9143093,-87.6853838
MLS Listing,,Single Family Residential,143 N Lorel Ave,Chicago,IL,60644,269000,6,2.0,CHI - Austin,,5014,1895,3,,,Active,,,https://www.redfin.com/IL/Chicago/143-N-Lorel-Ave-60644/home/13264625,MRED as Distributed by MLS Grid,11928546,N,Y,41.8836521,-87.7586718
MLS Listing,,Condo/Co-op,7234 W North Ave #1802,Elmwood Park,IL,60707,219900,2,2.0,Cameo Tower,,,1968,3,,638,Active,,,https://www.redfin.com/IL/Elmwood-Park/7234-W-North-Ave-60707/unit-1802/home/13521430,MRED as Distributed by MLS Grid,11928524,N,Y,41.9091423,-87.8077989
MLS Listing,,Condo/Co-op,2915 N Clybourn Ave #313,Chicago,IL,60618,325000,2,2.0,CHI - North Center,,,2005,3,,371,Active,,,https://www.redfin.com/IL/Chicago/2915-N-Clybourn-Ave-60618/unit-313/home/18942679,MRED as Distributed by MLS Grid,11928531,N,Y,41.9346995,-87.6809875
MLS Listing,,Condo/Co-op,3258 N Harlem Ave N #305,Chicago,IL,60634,289000,2,2.0,CHI - Dunning,1100,,2006,3,263,314,Active,,,https://www.redfin.com/IL/Chicago/3258-N-Harlem-Ave-60634/unit-305/home/12610275,MRED as Distributed by MLS Grid,11923883,N,Y,41.9394508,-87.8071296
MLS Listing,,Vacant Land,5141 S Loomis Blvd,Chicago,IL,60609,25000,,,CHI - New City,,3125,,3,,,Active,,,https://www.redfin.com/IL/Chicago/5141-S-Loomis-Blvd-60609/home/147832515,MRED as Distributed by MLS Grid,11928459,N,Y,41.8001636,-87.6595603
MLS Listing,,Single Family Residential,1541 W Nelson St,Chicago,IL,60657,2200000,5,4.5,CHI - Lake View,,,2023,3,,,Active,,,https://www.redfin.com/IL/Chicago/1541-W-Nelson-St-60657/home/13366623,MRED as Distributed by MLS Grid,11927874,N,Y,41.9367647,-87.6677838
MLS Listing,,Condo/Co-op,857 N Paulina St #2,Chicago,IL,60622,465000,2,2.0,CHI - West Town,,,2007,3,,133,Active,,,https://www.redfin.com/IL/Chicago/857-N-Paulina-St-60622/unit-2/home/26812747,MRED as Distributed by MLS Grid,11927582,N,Y,41.8976667,-87.6695025
MLS Listing,,Single Family Residential,2547 W 81st St,Chicago,IL,60652,289900,3,1.0,CHI - Ashburn,1100,,1955,3,264,,Active,,,https://www.redfin.com/IL/Chicago/2547-W-81st-St-60652/home/13964099,MRED as Distributed by MLS Grid,11928499,N,Y,41.7461769,-87.6871771
MLS Listing,,Condo/Co-op,5900 S King Dr Unit GC,Chicago,IL,60637,95000,2,2.0,CHI - Washington Park,800,,1940,3,119,180,Active,,,https://www.redfin.com/IL/Chicago/5900-S-King-Dr-60637/unit-GC/home/145001908,MRED as Distributed by MLS Grid,11928488,N,Y,41.787336,-87.6168859
MLS Listing,,Condo/Co-op,180 E Pearson St #4707,Chicago,IL,60611,3199000,3,2.5,Water Tower Residences,2754,,1975,3,1162,1955,Active,,,https://www.redfin.com/IL/Chicago/180-E-Pearson-St-60611/unit-4707/home/14116839,MRED as Distributed by MLS Grid,11928239,N,Y,41.8976934,-87.6223109
MLS Listing,,Single Family Residential,5837 N Lacey Ave,Chicago,IL,60646,535000,3,2.0,CHI - Forest Glen,1413,8400,1955,3,379,,Active,,,https://www.redfin.com/IL/Chicago/5837-N-Lacey-Ave-60646/home/13513275,MRED as Distributed by MLS Grid,11914568,N,Y,41.9881173,-87.7536746
MLS Listing,,Single Family Residential,10060 S California Ave,Evergreen Park,IL,60805,235000,3,1.0,Evergreen Park,1133,4400,1954,3,207,,Active,,,https://www.redfin.com/IL/Evergreen-Park/10060-S-California-Ave-60805/home/13161068,MRED as Distributed by MLS Grid,11928457,N,Y,41.7102018,-87.6919272
MLS Listing,,Condo/Co-op,4240 N Clarendon Ave Unit 410N,Chicago,IL,60613,175000,1,1.5,CHI - Uptown,800,,1927,3,219,415,Active,,,https://www.redfin.com/IL/Chicago/4240-N-Clarendon-Ave-60613/unit-410N/home/13393875,MRED as Distributed by MLS Grid,11910572,N,Y,41.9598753,-87.6504399
MLS Listing,,Single Family Residential,7915 S Wabash Ave,Chicago,IL,60619,225000,5,3.0,CHI - Chatham,2348,3125,1925,3,96,,Active,,,https://www.redfin.com/IL/Chicago/7915-S-Wabash-Ave-60619/home/13226600,MRED as Distributed by MLS Grid,11924818,N,Y,41.7504747,-87.6226419
MLS Listing,,Single Family Residential,2817 N Hamlin Ave,Chicago,IL,60618,469900,5,3.0,CHI - Avondale,2200,3125,1905,3,214,,Active,,,https://www.redfin.com/IL/Chicago/2817-N-Hamlin-Ave-60618/home/13448583,MRED as Distributed by MLS Grid,11928434,N,Y,41.9324432,-87.7218217
MLS Listing,,Single Family Residential,1717 W Wellington Ave,Chicago,IL,60657,1799000,5,3.5,Wellington Park,,3136,2002,3,,287,Active,,,https://www.redfin.com/IL/Chicago/1717-W-Wellington-Ave-60657/home/12757209,MRED as Distributed by MLS Grid,11928328,N,Y,41.9357816,-87.6717223
MLS Listing,,Condo/Co-op,480 N Mcclurg Ct #612,Chicago,IL,60611,239900,1,1.0,Cityview Condominiums,650,,1987,3,369,495,Active,,,https://www.redfin.com/IL/Chicago/480-N-McClurg-Ct-60611/unit-612/home/12789113,MRED as Distributed by MLS Grid,11927678,N,Y,41.8903025,-87.6179864
MLS Listing,,Single Family Residential,3909 W 64th St,Chicago,IL,60629,210000,3,1.5,CHI - West Lawn,1081,,1928,3,194,,Active,,,https://www.redfin.com/IL/Chicago/3909-W-64th-St-60629/home/13991642,MRED as Distributed by MLS Grid,11924982,N,Y,41.7767136,-87.7207132
MLS Listing,,Single Family Residential,1704 W 94th St,Chicago,IL,60643,189900,3,1.0,CHI - Beverly,1504,6098,1927,3,126,,Active,,,https://www.redfin.com/IL/Chicago/1704-W-94th-St-60643/home/13099520,MRED as Distributed by MLS Grid,11928348,N,Y,41.7232327,-87.6650147
MLS Listing,,Multi-Family (2-4 Unit),4606 N Damen Ave,Chicago,IL,60625,1075000,7,4.0,CHI - Lincoln Square,,5000,1896,3,,,Active,,,https://www.redfin.com/IL/Chicago/4606-N-Damen-Ave-60625/home/13392013,MRED as Distributed by MLS Grid,11928405,N,Y,41.9653984,-87.6794095
MLS Listing,,Single Family Residential,5704 S Wolcott Ave,Chicago,IL,60636,279000,5,3.0,CHI - West Englewood,3000,,1916,3,93,,Active,,,https://www.redfin.com/IL/Chicago/5704-S-Wolcott-Ave-60636/home/13937819,MRED as Distributed by MLS Grid,11928400,N,Y,41.7900757,-87.6720237
MLS Listing,,Condo/Co-op,474 N Lake Shore Dr #4104,Chicago,IL,60611,285000,1,1.0,CHI - Near North Side,741,,1991,3,385,584,Active,,,https://www.redfin.com/IL/Chicago/474-N-Lake-Shore-Dr-60611/unit-4104/home/12603136,MRED as Distributed by MLS Grid,11910335,N,Y,41.8908367,-87.6145904
MLS Listing,,Single Family Residential,1854 N Natoma Ave,Chicago,IL,60707,275000,2,1.0,CHI - Austin,903,4647,1952,3,305,,Active,,,https://www.redfin.com/IL/Chicago/1854-N-Natoma-Ave-60707/home/13431240,MRED as Distributed by MLS Grid,11909920,N,Y,41.9142816,-87.7915867
MLS Listing,,Multi-Family (2-4 Unit),2014 N Oakley Ave,Chicago,IL,60647,1095000,5,3.0,Bucktown,,2400,1890,3,,,Active,,,https://www.redfin.com/IL/Chicago/2014-N-Oakley-Ave-60647/home/13358056,MRED as Distributed by MLS Grid,11928383,N,Y,41.9181212,-87.6852952
MLS Listing,,Condo/Co-op,411 W Ontario St #710,Chicago,IL,60654,949000,3,3.0,Ontario Street Lofts,,,1910,3,,860,Active,,,https://www.redfin.com/IL/Chicago/411-W-Ontario-St-60654/unit-710/home/14103057,MRED as Distributed by MLS Grid,11924718,N,Y,41.8929314,-87.6398195
MLS Listing,,Condo/Co-op,1812 S State St #19,Chicago,IL,60616,375000,2,1.0,Dearborn Village,,,2000,3,,291,Active,,,https://www.redfin.com/IL/Chicago/1812-S-State-St-60616/unit-19/home/12786201,MRED as Distributed by MLS Grid,11928129,N,Y,41.8572682,-87.6275442
MLS Listing,,Multi-Family (5+ Unit),7257 S Princeton Ave,Chicago,IL,60621,995000,30,12.0,CHI - Greater Grand Crossing,,7500,1921,3,,,Active,,,https://www.redfin.com/IL/Chicago/7257-S-Princeton-Ave-60621/home/13917228,MRED as Distributed by MLS Grid,11928370,N,Y,41.7619461,-87.6317735
MLS Listing,,Single Family Residential,1644 N Keeler Ave,Chicago,IL,60639,499999,3,3.0,CHI - Humboldt Park,,3123,,3,,,Active,,,https://www.redfin.com/IL/Chicago/1644-N-Keeler-Ave-60639/home/13420881,MRED as Distributed by MLS Grid,11927713,N,Y,41.911221,-87.7315316
MLS Listing,,Condo/Co-op,777 N Michigan Ave #1107,Chicago,IL,60611,200000,0,1.0,CHI - Near North Side,600,,1965,3,333,465,Active,,,https://www.redfin.com/IL/Chicago/777-N-Michigan-Ave-60611/unit-1107/home/14099481,MRED as Distributed by MLS Grid,11920553,N,Y,41.89639,-87.62382
MLS Listing,,Condo/Co-op,20 E Goethe St #104,Chicago,IL,60610,259900,2,2.0,CHI - Near North Side,,,1901,3,,360,Active,,,https://www.redfin.com/IL/Chicago/20-E-Goethe-St-60610/unit-104/home/14126506,MRED as Distributed by MLS Grid,11927964,N,Y,41.9062184,-87.6279528
MLS Listing,,Single Family Residential,2946 N Natchez Ave,Chicago,IL,60634,499999,4,3.0,CHI - Belmont Cragin,1411,3750,1955,3,354,,Active,,,https://www.redfin.com/IL/Chicago/2946-N-Natchez-Ave-60634/home/13434214,MRED as Distributed by MLS Grid,11928359,N,Y,41.9341783,-87.7884655
MLS Listing,,Condo/Co-op,1134 N California Ave #202,Chicago,IL,60622,430000,3,2.5,CHI - West Town,1441,,2007,3,298,335,Active,,,https://www.redfin.com/IL/Chicago/1134-N-California-Ave-60622/unit-202/home/26810655,MRED as Distributed by MLS Grid,11926756,N,Y,41.9021404,-87.6972371
MLS Listing,,Single Family Residential,7229 S Wood St,Chicago,IL,60636,115000,3,2.0,CHI - West Englewood,1240,5183,1964,3,93,,Active,,,https://www.redfin.com/IL/Chicago/7229-S-Wood-St-60636/home/13911175,MRED as Distributed by MLS Grid,11927169,N,Y,41.7621177,-87.6683039
MLS Listing,,Multi-Family (2-4 Unit),215 E 107th St,Chicago,IL,60628,279900,7,4.0,CHI - Roseland,,3875,1925,3,,,Active,,,https://www.redfin.com/IL/Chicago/215-E-107th-St-60628/home/13081261,MRED as Distributed by MLS Grid,11928342,N,Y,41.6997397,-87.6178087
MLS Listing,,Single Family Residential,5626 N Overhill Ave,Chicago,IL,60631,839900,5,3.5,CHI - Norwood Park,3570,5080,2023,3,235,,Active,,,https://www.redfin.com/IL/Chicago/5626-N-Overhill-Ave-60631/home/13564787,MRED as Distributed by MLS Grid,11928335,N,Y,41.9823028,-87.8197142
MLS Listing,,Single Family Residential,3908 E 110th St,Chicago,IL,60617,234900,3,2.0,CHI - East Side,900,,1959,3,261,,Active,,,https://www.redfin.com/IL/Chicago/3908-E-110th-St-60617/home/13036591,MRED as Distributed by MLS Grid,11928104,N,Y,41.6956512,-87.5289022
MLS Listing,,Single Family Residential,8015 S Aberdeen St,Chicago,IL,60620,339000,5,3.0,CHI - Auburn Gresham,1677,,1921,3,202,,Active,,,https://www.redfin.com/IL/Chicago/8015-S-Aberdeen-St-60620/home/12557879,MRED as Distributed by MLS Grid,11924746,N,Y,41.748244,-87.650907
MLS Listing,,Condo/Co-op,758 N Larrabee St #205,Chicago,IL,60610,415000,2,2.0,One River Place,1100,,1920,3,377,830,Active,,,https://www.redfin.com/IL/Chicago/758-N-Larrabee-St-60654/unit-205/home/12697489,MRED as Distributed by MLS Grid,11830894,N,Y,41.895943,-87.6436993
MLS Listing,,Single Family Residential,2938 W Belden Ave,Chicago,IL,60647,1375000,5,3.5,CHI - Logan Square,3600,3500,2023,3,382,,Active,,,https://www.redfin.com/IL/Chicago/2938-W-Belden-Ave-60647/home/13418165,MRED as Distributed by MLS Grid,11928322,N,Y,41.923489,-87.70149
MLS Listing,,Multi-Family (2-4 Unit),3243 W Flournoy St,Chicago,IL,60624,645900,7,4.0,CHI - East Garfield Park,,3125,,3,,,Active,,,https://www.redfin.com/IL/Chicago/3243-W-Flournoy-St-60624/home/188528198,MRED as Distributed by MLS Grid,11928304,N,Y,41.8725718,-87.7075499
MLS Listing,,Multi-Family (5+ Unit),8459 S Paulina St,Chicago,IL,60620,359900,10,8.0,CHI - Auburn Gresham,8000,6250,1927,3,45,,Active,,,https://www.redfin.com/IL/Chicago/8459-S-Paulina-St-60620/home/13908001,MRED as Distributed by MLS Grid,11928312,N,Y,41.739565,-87.665243
MLS Listing,,Multi-Family (5+ Unit),9158 S Dauphin Ave,Chicago,IL,60619,399000,10,10.0,CHI - Chatham,8070,8559,1962,3,49,,Active,,,https://www.redfin.com/IL/Chicago/9158-S-Dauphin-Ave-60619/home/13113789,MRED as Distributed by MLS Grid,11928302,N,Y,41.7277193,-87.6036303
MLS Listing,,Condo/Co-op,50 E Bellevue Pl #405,Chicago,IL,60611,549900,2,2.0,CHI - Near North Side,1450,,1979,3,379,1223,Active,,,https://www.redfin.com/IL/Chicago/50-E-Bellevue-Pl-60611/unit-405/home/12570734,MRED as Distributed by MLS Grid,11927556,N,Y,41.9019886,-87.6266976
MLS Listing,,Single Family Residential,3650 N Avondale Ave,Chicago,IL,60618,950000,4,3.5,The Villa,3240,,2018,3,293,,Active,November-19-2023 11:00 AM,November-19-2023 01:00 PM,https://www.redfin.com/IL/Chicago/3650-N-Avondale-Ave-60618/home/12629879,MRED as Distributed by MLS Grid,11927549,N,Y,41.9473912,-87.7217832
MLS Listing,,Multi-Family (2-4 Unit),7828 S Greenwood Ave,Chicago,IL,60619,309900,5,2.0,CHI - Greater Grand Crossing,,,1875,3,,,Active,,,https://www.redfin.com/IL/Chicago/7828-S-Greenwood-Ave-60619/home/13921863,MRED as Distributed by MLS Grid,11928002,N,Y,41.7522711,-87.5982187
MLS Listing,,Condo/Co-op,1425 W Walton St #3,Chicago,IL,60642,775000,3,2.0,CHI - West Town,1720,,2019,3,451,150,Active,,,https://www.redfin.com/IL/Chicago/1425-W-Walton-St-60642/unit-3/home/170267854,MRED as Distributed by MLS Grid,11927706,N,Y,41.898693,-87.6635311
MLS Listing,,Condo/Co-op,523 S Plymouth Ct #803,Chicago,IL,60605,249900,1,1.0,Peterson Lofts,1000,,1914,3,250,537,Active,,,https://www.redfin.com/IL/Chicago/523-S-Plymouth-Ct-60605/unit-803/home/14091988,MRED as Distributed by MLS Grid,11928299,N,Y,41.8750447,-87.6283943
MLS Listing,,Condo/Co-op,6912 W Medill Ave Unit 1W,Chicago,IL,60707,315000,3,2.5,CHI - Montclare,,,,3,,313,Active,,,https://www.redfin.com/IL/Chicago/6912-W-Medill-Ave-60707/unit-1W/home/26806054,MRED as Distributed by MLS Grid,11928153,N,Y,41.9225234,-87.7985854
MLS Listing,,Vacant Land,4550 W Fulton St,Chicago,IL,60624,250000,,,CHI - West Garfield Park,,14810,,3,,,Active,,,https://www.redfin.com/IL/Chicago/4550-W-Fulton-St-60624/home/175887730,MRED as Distributed by MLS Grid,11927986,N,Y,41.8855011,-87.7396991
MLS Listing,,Condo/Co-op,10 E Ontario St #1602,Chicago,IL,60611,289000,1,1.0,CHI - Near North Side,800,,1984,3,361,757,Active,,,https://www.redfin.com/IL/Chicago/10-E-Ontario-St-60611/unit-1602/home/12620528,MRED as Distributed by MLS Grid,11921670,N,Y,41.8934976,-87.6277186
MLS Listing,,Single Family Residential,3537 N Ozark Ave,Chicago,IL,60634,474900,3,3.5,CHI - Dunning,2700,3123,1937,3,176,,Active,,,https://www.redfin.com/IL/Chicago/3537-N-Ozark-Ave-60634/home/13543137,MRED as Distributed by MLS Grid,11926503,N,Y,41.9442784,-87.8201261
MLS Listing,,Condo/Co-op,1300 N Astor St Unit 26C,Chicago,IL,60610,285000,1,1.0,CHI - Near North Side,800,,1962,3,356,1219,Active,,,https://www.redfin.com/IL/Chicago/1300-N-Astor-St-60610/unit-26C/home/12666555,MRED as Distributed by MLS Grid,11928073,N,Y,41.9059804,-87.6276829
MLS Listing,,Single Family Residential,11934 Artesian Ave,Blue Island,IL,60406,275000,4,2.0,Blue Island,2578,5000,1941,3,107,,Active,,,https://www.redfin.com/IL/Blue-Island/11934-Artesian-Ave-60406/home/13132302,MRED as Distributed by MLS Grid,11924882,N,Y,41.6761904,-87.6821707
MLS Listing,,Condo/Co-op,6301 N Sheridan Rd Unit 16M,Chicago,IL,60660,155000,1,1.0,Shoreline Towers,,,1964,3,,837,Active,,,https://www.redfin.com/IL/Chicago/6301-N-Sheridan-Rd-60660/unit-16M/home/13413664,MRED as Distributed by MLS Grid,11923149,N,Y,41.9967345,-87.6550688
MLS Listing,,Single Family Residential,10214 S Fairfield Ave,Chicago,IL,60655,275000,3,1.0,West Beverly,1170,4312,1956,3,235,,Active,,,https://www.redfin.com/IL/Chicago/10214-S-Fairfield-Ave-60655/home/13158928,MRED as Distributed by MLS Grid,11920249,N,Y,41.7076386,-87.6906042
MLS Listing,,Condo/Co-op,3153 W Washington Blvd #1,Chicago,IL,60612,349999,3,3.0,CHI - East Garfield Park,2700,,2003,3,130,150,Active,,,https://www.redfin.com/IL/Chicago/3153-W-Washington-Blvd-60612/unit-1/home/144509927,MRED as Distributed by MLS Grid,11928229,N,Y,41.8825001,-87.7057487
MLS Listing,,Condo/Co-op,7234 W North Ave #612,Elmwood Park,IL,60707,114900,1,1.0,Cameo Tower,750,,1968,3,153,401,Active,,,https://www.redfin.com/IL/Elmwood-Park/7234-W-North-Ave-60707/unit-612/home/13521674,MRED as Distributed by MLS Grid,11928230,N,Y,41.9091423,-87.8077989
MLS Listing,,Single Family Residential,5255 S Melvina Ave,Chicago,IL,60638,389900,3,2.0,CHI - Garfield Ridge,1200,,1999,4,325,,Active,November-19-2023 01:00 PM,November-19-2023 03:00 PM,https://www.redfin.com/IL/Chicago/5255-S-Melvina-Ave-60638/home/14028385,MRED as Distributed by MLS Grid,11927810,N,Y,41.7964238,-87.776735
MLS Listing,,Single Family Residential,1055 N Drake Ave,Chicago,IL,60651,499900,5,4.0,CHI - Humboldt Park,1663,3750,1914,4,301,,Active,,,https://www.redfin.com/IL/Chicago/1055-N-Drake-Ave-60651/home/13283921,MRED as Distributed by MLS Grid,11928222,N,Y,41.9007391,-87.7150297
MLS Listing,,Single Family Residential,3656 W Ohio St,Chicago,IL,60624,295900,4,2.0,CHI - Humboldt Park,1534,,1878,4,193,,Active,,,https://www.redfin.com/IL/Chicago/3656-W-Ohio-St-60624/home/13262612,MRED as Distributed by MLS Grid,11928220,N,Y,41.8919002,-87.7184187
MLS Listing,,Single Family Residential,815 N Latrobe Ave,Chicago,IL,60651,199900,4,2.0,CHI - Austin,3216,,,4,62,,Active,,,https://www.redfin.com/IL/Chicago/815-N-Latrobe-Ave-60651/home/185971332,MRED as Distributed by MLS Grid,11928218,N,Y,41.895465,-87.7566321
MLS Listing,,Single Family Residential,8849 S Throop St,Chicago,IL,60620,274500,5,2.0,CHI - Auburn Gresham,1356,3125,1923,4,202,,Active,,,https://www.redfin.com/IL/Chicago/8849-S-Throop-St-60620/home/13104282,MRED as Distributed by MLS Grid,11928158,N,Y,41.732673,-87.6553835
MLS Listing,,Single Family Residential,1903 W Marquette Rd,Chicago,IL,60636,250000,4,2.0,CHI - West Englewood,1500,3125,1959,4,167,,Active,,,https://www.redfin.com/IL/Chicago/1903-W-Marquette-Rd-60636/home/13934291,MRED as Distributed by MLS Grid,11928195,N,Y,41.7719071,-87.6715454
MLS Listing,,Condo/Co-op,21 E Huron St #3502,Chicago,IL,60611,572000,1,1.5,CHI - Near North Side,1210,,2002,4,473,1119,Active,,,https://www.redfin.com/IL/Chicago/21-E-Huron-St-60611/unit-3502/home/12648122,MRED as Distributed by MLS Grid,11927322,N,Y,41.8945104,-87.6271139
MLS Listing,,Single Family Residential,5318 N Mobile Ave,Chicago,IL,60630,249900,2,2.0,CHI - Jefferson Park,1020,,1929,4,245,,Active,,,https://www.redfin.com/IL/Chicago/5318-N-Mobile-Ave-60630/home/13503126,MRED as Distributed by MLS Grid,11928166,N,Y,41.9780932,-87.7854986
MLS Listing,,Single Family Residential,4626 N Leclaire Ave,Chicago,IL,60630,509000,4,2.5,CHI - Portage Park,,3750,1917,4,,,Active,,,https://www.redfin.com/IL/Chicago/4626-N-LeClaire-Ave-60630/home/13479395,MRED as Distributed by MLS Grid,11928159,N,Y,41.96512,-87.755346
MLS Listing,,Multi-Family (2-4 Unit),5717 S Damen Ave,Chicago,IL,60636,349999,5,2.0,CHI - West Englewood,,,1913,4,,,Active,,,https://www.redfin.com/IL/Chicago/5717-S-Damen-Ave-60636/home/183701934,MRED as Distributed by MLS Grid,11928203,N,Y,41.7897466,-87.6739173
MLS Listing,,Single Family Residential,9316 S Normal Ave,Chicago,IL,60620,242000,4,2.0,CHI - Washington Heights,1200,3746,1961,4,202,,Active,,,https://www.redfin.com/IL/Chicago/9316-S-Normal-Ave-60620/home/13106182,MRED as Distributed by MLS Grid,11928134,N,Y,41.7246559,-87.6362848
MLS Listing,,Multi-Family (2-4 Unit),6350 S Greenwood Ave,Chicago,IL,60637,997000,12,4.0,CHI - Woodlawn,,3775,,4,,,Active,,,https://www.redfin.com/IL/Chicago/6350-S-Greenwood-Ave-60637/home/13927670,MRED as Distributed by MLS Grid,11919209,N,Y,41.778985,-87.5994873
MLS Listing,,Single Family Residential,6125 N Hermitage Ave,Chicago,IL,60660,1250000,5,3.5,CHI - Edgewater,3810,,2023,4,328,,Active,,,https://www.redfin.com/IL/Chicago/6125-N-Hermitage-Ave-60660/home/13406479,MRED as Distributed by MLS Grid,11928200,N,Y,41.9936257,-87.6732129
MLS Listing,,Single Family Residential,5415 S Narragansett Ave,Chicago,IL,60638,359500,4,2.0,CHI - Garfield Ridge,1072,3125,1963,4,335,,Active,,,https://www.redfin.com/IL/Chicago/5415-S-Narragansett-Ave-60638/home/14026391,MRED as Distributed by MLS Grid,11928199,N,Y,41.7937769,-87.7815627
MLS Listing,,Single Family Residential,4162 S Berkeley Ave,Chicago,IL,60653,629000,4,3.5,CHI - Oakland,3000,2090,2008,4,210,,Active,,,https://www.redfin.com/IL/Chicago/4162-S-Berkeley-Ave-60653/home/12660740,MRED as Distributed by MLS Grid,11928192,N,Y,41.8183248,-87.601057
MLS Listing,,Single Family Residential,3110 N Leavitt St,Chicago,IL,60618,1899000,6,5.0,CHI - North Center,4200,3125,2023,4,452,,Active,,,https://www.redfin.com/IL/Chicago/3110-N-Leavitt-St-60618/home/184569753,MRED as Distributed by MLS Grid,11928194,N,Y,41.9381266,-87.6834157
MLS Listing,,Single Family Residential,2744 W Altgeld St,Chicago,IL,60647,1699000,5,3.5,CHI - Logan Square,3939,3149,2023,4,431,,Active,,,https://www.redfin.com/IL/Chicago/2744-W-Altgeld-St-60647/home/185138040,MRED as Distributed by MLS Grid,11928197,N,Y,41.9268324,-87.6968404
MLS Listing,,Multi-Family (2-4 Unit),6456 S Bishop St,Chicago,IL,60636,169900,6,2.0,,,3049,1911,4,,,Active,,,https://www.redfin.com/IL/Chicago/Undisclosed-address-60636/home/13933260,MRED as Distributed by MLS Grid,11928184,N,Y,41.7760774,-87.660747
MLS Listing,,Condo/Co-op,1515 S Prairie Ave #812,Chicago,IL,60605,399900,2,2.0,CHI - Near South Side,1601,,2003,4,250,1233,Active,,,https://www.redfin.com/IL/Chicago/1515-S-Prairie-Ave-60605/unit-812/home/12679814,MRED as Distributed by MLS Grid,11928133,N,Y,41.8617675,-87.6202181
MLS Listing,,Vacant Land,4139 W Carroll Ave,Chicago,IL,60624,15000,,,CHI - West Garfield Park,,3725,,4,,,Active,,,https://www.redfin.com/IL/Chicago/4139-W-Carroll-Ave-60624/home/175647262,MRED as Distributed by MLS Grid,11928149,N,Y,41.886518,-87.7297897
MLS Listing,,Multi-Family (2-4 Unit),2038 W Huron St,Chicago,IL,60612,750000,5,3.0,Ukrainian Village,,2256,1892,4,,,Active,,,https://www.redfin.com/IL/Chicago/2038-W-Huron-St-60612/home/183749658,MRED as Distributed by MLS Grid,11927388,N,Y,41.8942677,-87.6785888
MLS Listing,,Single Family Residential,7045 S Chappel Ave,Chicago,IL,60649,155000,3,2.0,CHI - South Shore,2070,6250,1916,4,75,,Active,,,https://www.redfin.com/IL/Chicago/7045-S-Chappel-Ave-60649/home/13925026,MRED as Distributed by MLS Grid,11928122,N,Y,41.7666777,-87.5748632
MLS Listing,,Condo/Co-op,2909 N Sheridan Rd #1909,Chicago,IL,60657,359900,2,2.0,CHI - Lake View,,,,4,,1070,Active,,,https://www.redfin.com/IL/Chicago/2909-N-Sheridan-Rd-60657/unit-1909/home/13369279,MRED as Distributed by MLS Grid,11928127,N,Y,41.9347042,-87.6390529
MLS Listing,,Townhouse,9803 S Yates Blvd,Chicago,IL,60617,69900,3,2.0,CHI - South Deering,956,,1947,4,73,,Active,,,https://www.redfin.com/IL/Chicago/9803-S-Yates-Blvd-60617/home/13041541,MRED as Distributed by MLS Grid,11928120,N,Y,41.7170355,-87.5643366
MLS Listing,,Condo/Co-op,88 W Schiller St Unit 1403L,Chicago,IL,60610,274900,1,1.0,CHI - Near North Side,,,1969,4,,604,Active,,,https://www.redfin.com/IL/Chicago/88-W-Schiller-St-60610/unit-1403L/home/14114897,MRED as Distributed by MLS Grid,11928123,N,Y,41.9080921,-87.6312196
MLS Listing,,Multi-Family (2-4 Unit),9020 S Burley Ave,Chicago,IL,60617,210000,6,3.0,CHI - South Chicago,,3049,1888,4,,,Active,,,https://www.redfin.com/IL/Chicago/9020-S-Burley-Ave-60617/home/13043316,MRED as Distributed by MLS Grid,11927982,N,Y,41.7313237,-87.5459402
